=~=~=~=~=~=~=~=~=~=~=~= PuTTY log 2023.01.19 17:15:40 =~=~=~=~=~=~=~=~=~=~=~=
+GPSRD:$GNGGA,161540.000,5133.4366,N,00431.0018,E,1,8,1.24,-16.0,M,47.2,M,,*5D
$GPGSA,A,3,12,22,11,25,20,02,,,,,,,1.54,1.24,0.92*0A
$BDGSA,A,3,13,23,,,,,,,,,,,1.54,1.24,0.92*1C
$GPGSV,4,1,14,29,84,155,,31,60,270,,25,51,102,23,02,45,141,32*79
$GPGSV,4,2,14,26,26,287,,11,23,044,16,12,22,099,23,22,21,250,22*77
$GPGSV,4,3,14,18,13,175,13,20,11,069,26,44,08,113,,04,06,340,*76
$GPGSV,4,4,14,32,04,222,,05,01,099,*7F
$BDGSV,2,1,08,28,52,190,17,23,47,143,28,13,32,074,23,05,12,120,*6A
$BDGSV,2,2,08,27,07,212,17,22,04,356,,19,02,309,,25,01,134,*61
$GNRMC,161540.000,A,5133.4366,N,00431.0018,E,0.127,84.09,190123,,,A*72
$GNVTG,84.09,T,,M,0.127,N,0.236,K,A*15
+GPSRD:$GNGGA,161541.000,5133.4364,N,00431.0019,E,1,8,1.24,-16.0,M,47.2,M,,*5F
$GPGSA,A,3,12,22,11,25,20,02,,,,,,,1.54,1.24,0.92*0A
$BDGSA,A,3,13,23,,,,,,,,,,,1.54,1.24,0.92*1C
$GPGSV,4,1,14,29,84,155,,31,60,270,,25,51,102,23,02,45,141,32*79
$GPGSV,4,2,14,26,26,287,,11,23,044,16,12,22,099,23,22,21,250,22*77
$GPGSV,4,3,14,18,13,175,13,20,11,069,26,44,08,113,,04,06,340,*76
$GPGSV,4,4,14,32,04,222,,05,01,099,*7F
$BDGSV,2,1,08,28,52,190,17,23,47,143,28,13,32,074,23,05,12,120,*6A
$BDGSV,2,2,08,27,07,212,17,22,04,356,,19,02,309,,25,01,134,*61
$GNRMC,161541.000,A,5133.4364,N,00431.0019,E,0.656,168.56,190123,,,A*48
$GNVTG,168.56,T,,M,0.656,N,1.215,K,A*2D
+GPSRD:$GNGGA,161542.000,5133.4362,N,00431.0020,E,1,8,1.24,-16.0,M,47.2,M,,*50
$GPGSA,A,3,12,22,11,25,20,02,,,,,,,1.54,1.24,0.92*0A
$BDGSA,A,3,13,23,,,,,,,,,,,1.54,1.24,0.92*1C
$GPGSV,4,1,14,29,84,155,,31,60,270,,25,51,102,24,02,45,141,32*7E
$GPGSV,4,2,14,26,26,287,,11,23,044,16,12,22,099,23,22,21,250,22*77
$GPGSV,4,3,14,18,13,175,13,20,11,069,26,44,08,113,,04,06,340,*76
$GPGSV,4,4,14,32,04,222,,05,01,099,*7F
$BDGSV,2,1,08,28,52,190,17,23,47,143,28,13,32,074,23,05,12,120,*6A
$BDGSV,2,2,08,27,07,212,17,22,04,356,,19,02,309,,25,01,134,*61
$GNRMC,161542.000,A,5133.4362,N,00431.0020,E,0.133,330.25,190123,,,A*48
$GNVTG,330.25,T,,M,0.133,N,0.247,K,A*24
+GPSRD:$GNGGA,161543.000,5133.4358,N,00431.0020,E,1,8,1.24,-16.0,M,47.2,M,,*58
$GPGSA,A,3,12,22,11,25,20,02,,,,,,,1.54,1.24,0.92*0A
$BDGSA,A,3,13,23,,,,,,,,,,,1.54,1.24,0.92*1C
$GPGSV,4,1,14,29,84,155,,31,60,270,,25,51,102,23,02,45,141,32*79
$GPGSV,4,2,14,26,26,287,,11,23,044,16,12,22,099,23,22,21,250,22*77
$GPGSV,4,3,14,18,13,175,14,20,11,069,27,04,06,340,,32,04,222,*7C
$GPGSV,4,4,14,05,01,098,,34,,,*4E
$BDGSV,2,1,08,28,52,190,17,23,47,143,27,13,32,074,24,05,12,120,*62
$BDGSV,2,2,08,27,07,212,17,22,04,356,,19,02,309,,25,01,134,*61
$GNRMC,161543.000,A,5133.4358,N,00431.0020,E,0.544,2.13,190123,,,A*43
$GNVTG,2.13,T,,M,0.544,N,1.007,K,A*20
+GPSRD:$GNGGA,161544.000,5133.4356,N,00431.0021,E,1,8,1.47,-16.0,M,47.2,M,,*55
$GPGSA,A,3,12,22,11,25,20,02,,,,,,,2.79,1.47,2.37*0E
$BDGSA,A,3,13,23,,,,,,,,,,,2.79,1.47,2.37*18
$GPGSV,4,1,14,29,84,155,,31,60,270,,25,51,102,23,02,45,141,32*79
$GPGSV,4,2,14,26,26,287,,11,23,044,15,12,22,099,23,22,21,250,21*77
$GPGSV,4,3,14,18,13,175,14,20,11,069,27,04,06,340,,32,04,222,*7C
$GPGSV,4,4,14,05,01,098,,34,,,*4E
$BDGSV,2,1,08,28,52,190,17,23,47,143,27,13,32,074,24,05,12,120,*62
$BDGSV,2,2,08,27,07,212,17,22,04,356,,19,02,309,,25,01,134,*61
$GNRMC,161544.000,A,5133.4356,N,00431.0021,E,0.197,68.13,190123,,,A*7D
$GNVTG,68.13,T,,M,0.197,N,0.365,K,A*10
+GPSRD:$GNGGA,161545.000,5133.4350,N,00431.0023,E,1,8,1.24,-16.0,M,47.2,M,,*55
$GPGSA,A,3,12,22,11,25,20,02,,,,,,,1.54,1.24,0.92*0A
$BDGSA,A,3,13,23,,,,,,,,,,,1.54,1.24,0.92*1C
$GPGSV,4,1,14,29,84,155,,31,60,270,,25,51,102,23,02,45,141,32*79
$GPGSV,4,2,14,26,26,287,,11,23,044,14,12,22,099,23,22,21,250,21*76
$GPGSV,4,3,14,18,13,175,14,20,11,069,27,04,06,340,,32,04,222,*7C
$GPGSV,4,4,14,05,01,098,,34,,,*4E
$BDGSV,2,1,08,28,52,190,18,23,47,143,26,13,32,074,24,05,12,120,*6C
$BDGSV,2,2,08,27,07,212,17,22,04,356,,19,02,309,,25,01,134,*61
$GNRMC,161545.000,A,5133.4350,N,00431.0023,E,0.758,159.37,190123,,,A*48
$GNVTG,159.37,T,,M,0.758,N,1.405,K,A*20
+GPSRD:$GNGGA,161546.000,5133.4347,N,00431.0025,E,1,8,1.24,-16.0,M,47.2,M,,*56
$GPGSA,A,3,12,22,11,25,20,02,,,,,,,1.54,1.24,0.92*0A
$BDGSA,A,3,13,23,,,,,,,,,,,1.54,1.24,0.92*1C
$GPGSV,4,1,14,29,84,155,,31,60,270,,25,51,102,24,02,45,141,32*7E
$GPGSV,4,2,14,26,26,287,,11,23,044,14,12,22,099,22,22,21,250,21*77
$GPGSV,4,3,14,18,13,175,14,20,11,069,27,04,06,340,,32,04,222,*7C
$GPGSV,4,4,14,05,01,098,,34,,,*4E
$BDGSV,2,1,08,28,52,190,18,23,47,143,26,13,32,074,24,05,12,120,*6C
$BDGSV,2,2,08,27,07,212,17,22,04,356,,19,02,309,,25,01,134,*61
$GNRMC,161546.000,A,5133.4347,N,00431.0025,E,0.848,171.59,190123,,,A*47
$GNVTG,171.59,T,,M,0.848,N,1.571,K,A*2E
+GPSRD:$GNGGA,161547.000,5133.4343,N,00431.0026,E,1,8,1.24,-16.0,M,47.2,M,,*50
$GPGSA,A,3,12,22,11,25,20,02,,,,,,,1.54,1.24,0.92*0A
$BDGSA,A,3,13,23,,,,,,,,,,,1.54,1.24,0.92*1C
$GPGSV,4,1,14,29,84,155,,31,60,270,,25,51,102,24,02,45,141,31*7D
$GPGSV,4,2,14,26,26,287,,11,23,044,16,12,22,099,21,22,21,250,21*76
$GPGSV,4,3,14,18,13,175,14,20,11,069,26,04,06,340,,32,04,222,*7D
$GPGSV,4,4,14,05,01,098,,34,,,*4E
$BDGSV,2,1,08,28,52,190,19,23,47,143,26,13,32,074,24,05,12,120,*6D
$BDGSV,2,2,08,27,07,212,17,22,04,356,,19,02,309,,25,01,134,*61
$GNRMC,161547.000,A,5133.4343,N,00431.0026,E,0.665,169.58,190123,,,A*48
$GNVTG,169.58,T,,M,0.665,N,1.232,K,A*27
+GPSRD:$GNGGA,161548.000,5133.4343,N,00431.0024,E,1,8,1.24,-16.0,M,47.2,M,,*5D
$GPGSA,A,3,12,22,11,25,20,02,,,,,,,1.54,1.24,0.92*0A
$BDGSA,A,3,13,23,,,,,,,,,,,1.54,1.24,0.92*1C
$GPGSV,4,1,14,29,84,155,,31,60,270,,25,51,102,23,02,45,141,31*7A
$GPGSV,4,2,14,26,26,287,,11,23,044,13,12,22,099,21,22,21,250,21*73
$GPGSV,4,3,14,18,13,175,14,20,11,069,26,04,06,340,,32,04,222,*7D
$GPGSV,4,4,14,05,01,098,,34,,,*4E
$BDGSV,2,1,08,28,52,190,19,23,47,143,26,13,32,074,24,05,12,120,*6D
$BDGSV,2,2,08,27,07,212,17,22,04,356,,19,02,309,,25,01,134,*61
$GNRMC,161548.000,A,5133.4343,N,00431.0024,E,0.193,1.80,190123,,,A*41
$GNVTG,1.80,T,,M,0.193,N,0.358,K,A*2F
+GPSRD:$GNGGA,161549.000,5133.4339,N,00431.0025,E,1,8,1.47,-16.1,M,47.2,M,,*54
$GPGSA,A,3,12,22,11,25,20,02,,,,,,,2.79,1.47,2.37*0E
$BDGSA,A,3,13,23,,,,,,,,,,,2.79,1.47,2.37*18
$GPGSV,4,1,14,29,84,155,,31,60,270,,25,51,102,23,02,45,141,31*7A
$GPGSV,4,2,14,26,26,287,,11,23,044,13,12,22,099,22,22,21,250,21*70
$GPGSV,4,3,14,18,13,175,14,20,11,069,26,04,06,340,,32,04,222,*7D
$GPGSV,4,4,14,05,01,098,,35,,,*4F
$BDGSV,2,1,08,28,52,190,19,23,47,143,26,13,32,074,25,05,12,120,*6C
$BDGSV,2,2,08,27,07,212,17,22,04,356,,19,02,309,,25,01,134,*61
$GNRMC,161549.000,A,5133.4339,N,00431.0025,E,0.508,173.52,190123,,,A*41
$GNVTG,173.52,T,,M,0.508,N,0.940,K,A*21
+GPSRD:$GNGGA,161550.000,5133.4335,N,00431.0026,E,1,8,1.24,-16.1,M,47.2,M,,*56
$GPGSA,A,3,12,22,11,25,20,02,,,,,,,1.54,1.24,0.92*0A
$BDGSA,A,3,13,23,,,,,,,,,,,1.54,1.24,0.92*1C
$GPGSV,4,1,14,29,84,155,,31,60,270,,25,51,102,23,02,45,141,31*7A
$GPGSV,4,2,14,26,26,287,,11,23,044,13,12,22,099,22,22,21,250,21*70
$GPGSV,4,3,14,18,13,175,13,20,11,069,27,04,06,340,,32,04,222,*7B
$GPGSV,4,4,14,05,01,098,,35,,,*4F
$BDGSV,2,1,08,28,52,190,19,23,47,143,26,13,32,074,25,05,12,120,*6C
$BDGSV,2,2,08,27,07,212,18,22,04,356,,19,02,309,,25,01,134,*6E
$GNRMC,161550.000,A,5133.4335,N,00431.0026,E,0.343,148.87,190123,,,A*4F
$GNVTG,148.87,T,,M,0.343,N,0.635,K,A*25
+GPSRD:$GNGGA,161551.000,5133.4331,N,00431.0030,E,1,8,1.23,-16.1,M,47.2,M,,*53
$GPGSA,A,3,12,22,11,25,20,02,,,,,,,1.54,1.23,0.92*0D
$BDGSA,A,3,13,23,,,,,,,,,,,1.54,1.23,0.92*1B
$GPGSV,4,1,14,29,84,155,,31,60,270,,25,51,102,23,02,45,141,31*7A
$GPGSV,4,2,14,26,26,287,,11,23,044,12,12,22,099,22,22,21,250,21*71
$GPGSV,4,3,14,18,13,175,13,20,11,069,27,04,06,340,,32,04,222,*7B
$GPGSV,4,4,14,05,01,098,,35,,,*4F
$BDGSV,3,1,09,28,52,190,19,23,47,143,26,13,32,074,24,08,32,063,*64
$BDGSV,3,2,09,05,12,120,,27,07,212,18,22,04,356,,19,02,309,*6B
$BDGSV,3,3,09,25,01,134,*51
$GNRMC,161551.000,A,5133.4331,N,00431.0030,E,0.622,129.75,190123,,,A*45
$GNVTG,129.75,T,,M,0.622,N,1.153,K,A*2B
+GPSRD:$GNGGA,161552.000,5133.4340,N,00431.0032,E,1,8,1.24,-16.0,M,47.2,M,,*52
$GPGSA,A,3,12,22,11,25,20,02,,,,,,,1.54,1.24,0.92*0A
$BDGSA,A,3,13,23,,,,,,,,,,,1.54,1.24,0.92*1C
$GPGSV,4,1,14,29,84,155,,31,60,270,,25,51,102,23,02,45,141,31*7A
$GPGSV,4,2,14,26,26,287,,11,23,044,13,12,22,099,21,22,21,250,21*73
$GPGSV,4,3,14,18,13,175,13,20,11,069,27,04,06,340,,32,04,222,*7B
$GPGSV,4,4,14,05,01,098,,35,,,*4F
$BDGSV,3,1,09,28,52,190,19,23,47,143,27,13,32,074,24,08,32,063,*65
$BDGSV,3,2,09,05,12,120,,27,07,212,18,22,04,356,,19,02,309,*6B
$BDGSV,3,3,09,25,01,134,*51
$GNRMC,161552.000,A,5133.4340,N,00431.0032,E,0.460,106.48,190123,,,A*45
$GNVTG,106.48,T,,M,0.460,N,0.852,K,A*25
+GPSRD:$GNGGA,161553.000,5133.4335,N,00431.0036,E,1,8,1.24,-16.0,M,47.2,M,,*55
$GPGSA,A,3,12,22,11,25,20,02,,,,,,,1.54,1.24,0.92*0A
$BDGSA,A,3,13,23,,,,,,,,,,,1.54,1.24,0.92*1C
$GPGSV,4,1,14,29,84,155,,31,60,270,,25,51,102,23,02,45,141,31*7A
$GPGSV,4,2,14,26,26,287,,11,23,044,13,12,22,099,21,22,21,250,22*70
$GPGSV,4,3,14,18,13,175,13,20,11,069,27,04,06,340,,32,04,222,*7B
$GPGSV,4,4,14,05,01,098,,35,,,*4F
$BDGSV,3,1,09,28,52,190,19,23,47,143,27,13,32,074,23,08,32,063,*62
$BDGSV,3,2,09,05,12,120,,27,07,212,18,22,04,356,,19,02,309,*6B
$BDGSV,3,3,09,25,01,134,*51
$GNRMC,161553.000,A,5133.4335,N,00431.0036,E,0.682,140.45,190123,,,A*43
$GNVTG,140.45,T,,M,0.682,N,1.264,K,A*2A
+GPSRD:$GNGGA,161554.000,5133.4339,N,00431.0039,E,1,8,1.23,-15.9,M,47.2,M,,*5C
$GPGSA,A,3,12,22,11,25,20,02,,,,,,,1.54,1.23,0.92*0D
$BDGSA,A,3,13,23,,,,,,,,,,,1.54,1.23,0.92*1B
$GPGSV,4,1,14,29,84,155,,31,60,270,,25,51,102,23,02,45,141,31*7A
$GPGSV,4,2,14,26,26,287,,11,23,044,11,12,22,099,21,22,21,250,22*72
$GPGSV,4,3,14,18,13,175,13,20,11,069,27,04,06,340,,32,04,222,*7B
$GPGSV,4,4,14,05,01,098,,35,,,*4F
$BDGSV,3,1,09,28,52,190,19,23,47,143,27,13,32,074,23,08,32,063,*62
$BDGSV,3,2,09,05,12,120,,27,07,212,18,22,04,356,,19,02,309,*6B
$BDGSV,3,3,09,25,01,134,*51
$GNRMC,161554.000,A,5133.4339,N,00431.0039,E,0.582,57.56,190123,,,A*71
$GNVTG,57.56,T,,M,0.582,N,1.078,K,A*13
+GPSRD:$GNGGA,161555.000,5133.4337,N,00431.0042,E,1,8,1.24,-15.8,M,47.2,M,,*59
$GPGSA,A,3,12,22,11,25,20,02,,,,,,,1.54,1.24,0.92*0A
$BDGSA,A,3,13,23,,,,,,,,,,,1.54,1.24,0.92*1C
$GPGSV,4,1,14,29,84,155,,31,60,270,,25,51,102,22,02,45,141,31*7B
$GPGSV,4,2,14,26,26,287,,11,23,044,12,12,22,099,21,22,21,250,22*71
$GPGSV,4,3,14,18,13,175,13,20,11,069,27,04,06,340,,32,04,222,*7B
$GPGSV,4,4,14,05,01,098,,36,,,*4C
$BDGSV,3,1,09,28,52,190,20,23,47,143,27,13,32,074,23,08,32,063,*68
$BDGSV,3,2,09,05,12,120,,27,07,212,18,22,04,356,,19,02,309,*6B
$BDGSV,3,3,09,25,01,134,*51
$GNRMC,161555.000,A,5133.4337,N,00431.0042,E,0.196,71.00,190123,,,A*74
$GNVTG,71.00,T,,M,0.196,N,0.362,K,A*1C
+GPSRD:$GNGGA,161556.000,5133.4329,N,00431.0045,E,1,8,1.36,-15.9,M,47.2,M,,*50
$GPGSA,A,3,12,22,11,25,20,02,,,,,,,1.64,1.36,0.93*0B
$BDGSA,A,3,13,23,,,,,,,,,,,1.64,1.36,0.93*1D
$GPGSV,4,1,14,29,84,155,,31,60,270,,25,51,102,22,02,45,141,31*7B
$GPGSV,4,2,14,26,26,287,,11,23,044,13,12,22,099,21,22,21,250,22*70
$GPGSV,4,3,14,18,13,175,13,20,11,069,27,04,06,340,,32,04,222,*7B
$GPGSV,4,4,14,05,01,098,,36,,,*4C
$BDGSV,3,1,09,28,52,190,20,23,47,143,27,13,32,074,24,08,32,063,*6F
$BDGSV,3,2,09,05,12,120,,27,07,212,18,22,04,356,,19,02,309,*6B
$BDGSV,3,3,09,25,01,134,*51
$GNRMC,161556.000,A,5133.4329,N,00431.0045,E,0.645,161.47,190123,,,A*45
$GNVTG,161.47,T,,M,0.645,N,1.194,K,A*2C
+GPSRD:$GNGGA,161557.000,5133.4334,N,00431.0046,E,1,8,1.23,-15.8,M,47.2,M,,*5B
$GPGSA,A,3,12,22,11,25,20,02,,,,,,,1.54,1.23,0.92*0D
$BDGSA,A,3,13,23,,,,,,,,,,,1.54,1.23,0.92*1B
$GPGSV,4,1,14,29,84,155,,31,60,270,,25,51,102,22,02,45,141,30*7A
$GPGSV,4,2,14,26,26,287,,11,23,044,16,12,22,099,21,22,21,250,22*75
$GPGSV,4,3,14,18,13,174,12,20,11,069,26,04,06,340,,32,04,222,*7A
$GPGSV,4,4,14,05,01,098,,36,,,*4C
$BDGSV,3,1,09,28,52,190,20,23,47,143,27,13,32,074,24,08,32,063,*6F
$BDGSV,3,2,09,05,12,120,,27,07,212,18,22,04,356,,19,02,309,*6B
$BDGSV,3,3,09,25,01,134,*51
$GNRMC,161557.000,A,5133.4334,N,00431.0046,E,0.498,144.96,190123,,,A*42
$GNVTG,144.96,T,,M,0.498,N,0.923,K,A*20
+GPSRD:$GNGGA,161558.000,5133.4334,N,00431.0048,E,1,8,1.24,-15.7,M,47.2,M,,*52
$GPGSA,A,3,12,22,11,25,20,02,,,,,,,1.54,1.24,0.92*0A
$BDGSA,A,3,13,23,,,,,,,,,,,1.54,1.24,0.92*1C
$GPGSV,4,1,14,29,84,155,,31,60,270,,25,51,102,23,02,45,141,30*7B
$GPGSV,4,2,14,26,26,287,,11,23,044,15,12,22,099,21,22,21,250,22*76
$GPGSV,4,3,14,18,13,174,12,20,11,069,26,04,06,340,,32,04,222,*7A
$GPGSV,4,4,14,05,01,098,,36,,,*4C
$BDGSV,3,1,09,28,52,190,20,23,47,143,27,13,32,074,24,08,32,063,*6F
$BDGSV,3,2,09,05,12,120,,27,07,212,17,22,04,356,,19,02,309,*64
$BDGSV,3,3,09,25,01,134,*51
$GNRMC,161558.000,A,5133.4334,N,00431.0048,E,0.070,92.05,190123,,,A*71
$GNVTG,92.05,T,,M,0.070,N,0.130,K,A*18
+GPSRD:$GNGGA,161559.000,5133.4339,N,00431.0047,E,1,8,1.23,-15.6,M,47.2,M,,*57
$GPGSA,A,3,12,22,11,25,20,02,,,,,,,1.54,1.23,0.92*0D
$BDGSA,A,3,13,23,,,,,,,,,,,1.54,1.23,0.92*1B
$GPGSV,4,1,14,29,84,155,,31,60,270,,25,51,102,24,02,45,141,30*7C
$GPGSV,4,2,14,26,26,287,,11,23,044,15,12,22,099,21,22,21,250,22*76
$GPGSV,4,3,14,18,13,174,11,20,11,069,26,04,06,340,,32,04,222,*79
$GPGSV,4,4,14,05,01,098,,36,,,*4C
$BDGSV,3,1,09,28,52,190,20,23,47,143,28,13,32,074,24,08,32,063,*60
$BDGSV,3,2,09,05,12,120,,27,07,212,17,22,04,356,,19,02,309,*64
$BDGSV,3,3,09,25,01,134,*51
$GNRMC,161559.000,A,5133.4339,N,00431.0047,E,0.467,356.23,190123,,,A*4F
$GNVTG,356.23,T,,M,0.467,N,0.866,K,A*2F
+GPSRD:$GNGGA,161600.000,5133.4345,N,00431.0046,E,1,8,1.47,-15.6,M,47.2,M,,*50
$GPGSA,A,3,12,22,11,25,20,02,,,,,,,2.79,1.47,2.37*0E
$BDGSA,A,3,13,23,,,,,,,,,,,2.79,1.47,2.37*18
$GPGSV,4,1,14,29,84,155,,31,60,270,,25,51,102,24,02,45,141,30*7C
$GPGSV,4,2,14,26,26,287,,11,23,044,15,12,22,099,21,22,21,250,22*76
$GPGSV,4,3,14,18,13,174,11,20,11,069,26,04,06,340,,32,04,222,*79
$GPGSV,4,4,14,05,01,098,,36,,,*4C
$BDGSV,3,1,09,28,52,190,20,23,47,143,29,13,32,074,24,08,32,063,*61
$BDGSV,3,2,09,05,12,120,,27,07,212,17,22,04,356,,19,02,309,*64
$BDGSV,3,3,09,25,01,134,*51
$GNRMC,161600.000,A,5133.4345,N,00431.0046,E,0.180,336.94,190123,,,A*4C
$GNVTG,336.94,T,,M,0.180,N,0.333,K,A*22
+GPSRD:$GNGGA,161601.000,5133.4339,N,00431.0045,E,1,8,1.35,-15.6,M,47.2,M,,*5C
$GPGSA,A,3,12,22,11,25,20,02,,,,,,,1.64,1.35,0.93*08
$BDGSA,A,3,13,23,,,,,,,,,,,1.64,1.35,0.93*1E
$GPGSV,4,1,14,29,84,155,,31,60,270,,25,51,102,24,02,45,141,30*7C
$GPGSV,4,2,14,26,26,287,,11,23,044,14,12,22,099,20,22,21,249,22*7E
$GPGSV,4,3,14,18,13,174,11,20,11,069,26,04,06,340,,32,04,222,*79
$GPGSV,4,4,14,05,01,098,,36,,,*4C
$BDGSV,3,1,09,28,52,190,21,23,47,143,29,13,32,074,24,08,32,063,*60
$BDGSV,3,2,09,05,12,120,,27,07,212,17,22,04,356,,19,02,309,*64
$BDGSV,3,3,09,25,01,134,*51
$GNRMC,161601.000,A,5133.4339,N,00431.0045,E,0.338,337.17,190123,,,A*4E
$GNVTG,337.17,T,,M,0.338,N,0.626,K,A*28
+GPSRD:$GNGGA,161602.000,5133.4343,N,00431.0044,E,1,8,1.23,-15.5,M,47.2,M,,*57
$GPGSA,A,3,12,22,11,25,20,02,,,,,,,1.54,1.23,0.92*0D
$BDGSA,A,3,13,23,,,,,,,,,,,1.54,1.23,0.92*1B
$GPGSV,4,1,14,29,84,155,,31,60,270,,25,51,102,24,02,45,141,30*7C
$GPGSV,4,2,14,26,26,287,,11,23,044,14,12,22,099,20,22,21,249,22*7E
$GPGSV,4,3,14,18,13,174,12,20,11,069,26,04,06,340,,32,04,222,*7A
$GPGSV,4,4,14,05,01,098,,38,,,*42
$BDGSV,3,1,09,28,52,190,21,23,47,143,29,13,32,074,24,08,32,063,*60
$BDGSV,3,2,09,05,12,120,,27,07,212,17,22,04,356,,19,02,309,*64
$BDGSV,3,3,09,25,01,134,*51
$GNRMC,161602.000,A,5133.4343,N,00431.0044,E,0.495,336.61,190123,,,A*41
$GNVTG,336.61,T,,M,0.495,N,0.917,K,A*25
+GPSRD:$GNGGA,161603.000,5133.4345,N,00431.0044,E,1,8,1.23,-15.5,M,47.2,M,,*50
$GPGSA,A,3,12,22,11,25,20,02,,,,,,,1.54,1.23,0.92*0D
$BDGSA,A,3,13,23,,,,,,,,,,,1.54,1.23,0.92*1B
$GPGSV,4,1,14,29,84,155,,31,60,270,,25,51,102,24,02,45,141,30*7C
$GPGSV,4,2,14,26,26,287,,11,23,044,15,12,22,099,20,22,21,249,22*7F
$GPGSV,4,3,14,18,13,174,13,20,11,069,26,04,06,340,,32,04,222,*7B
$GPGSV,4,4,14,05,01,098,,38,,,*42
$BDGSV,3,1,09,28,52,190,21,23,47,143,29,13,32,074,24,08,32,063,*60
$BDGSV,3,2,09,05,12,120,,27,07,212,17,22,04,356,,19,02,309,*64
$BDGSV,3,3,09,25,01,134,*51
$GNRMC,161603.000,A,5133.4345,N,00431.0044,E,0.336,295.45,190123,,,A*46
$GNVTG,295.45,T,,M,0.336,N,0.622,K,A*2C
+GPSRD:$GNGGA,161604.000,5133.4354,N,00431.0042,E,1,8,1.23,-15.4,M,47.2,M,,*50
$GPGSA,A,3,12,22,11,25,20,02,,,,,,,1.54,1.23,0.92*0D
$BDGSA,A,3,13,23,,,,,,,,,,,1.54,1.23,0.92*1B
$GPGSV,4,1,14,29,84,155,,31,60,270,,25,50,102,24,02,45,141,30*7D
$GPGSV,4,2,14,26,26,287,,11,23,044,14,12,22,099,20,22,21,249,22*7E
$GPGSV,4,3,14,18,13,174,14,20,11,069,26,04,06,340,,32,04,222,*7C
$GPGSV,4,4,14,05,01,098,,38,,,*42
$BDGSV,3,1,09,28,52,190,21,23,47,143,29,13,32,074,24,08,32,063,*60
$BDGSV,3,2,09,05,12,120,,27,07,212,17,22,04,356,,19,02,309,*64
$BDGSV,3,3,09,25,01,134,*51
$GNRMC,161604.000,A,5133.4354,N,00431.0042,E,0.746,319.94,190123,,,A*4D
$GNVTG,319.94,T,,M,0.746,N,1.383,K,A*29
+GPSRD:$GNGGA,161605.000,5133.4357,N,00431.0042,E,1,8,1.23,-15.3,M,47.2,M,,*55
$GPGSA,A,3,12,22,11,25,20,02,,,,,,,1.54,1.23,0.92*0D
$BDGSA,A,3,13,23,,,,,,,,,,,1.54,1.23,0.92*1B
$GPGSV,4,1,14,29,84,155,,31,60,270,,25,50,102,24,02,45,141,30*7D
$GPGSV,4,2,14,26,26,287,,11,23,044,15,12,22,099,20,22,21,249,22*7F
$GPGSV,4,3,14,18,13,174,14,20,11,069,26,04,06,340,,32,04,222,*7C
$GPGSV,4,4,14,05,01,098,,38,,,*42
$BDGSV,3,1,09,28,52,190,21,23,47,143,29,13,32,074,24,08,32,063,*60
$BDGSV,3,2,09,05,12,120,,27,07,212,17,22,04,356,,19,02,309,*64
$BDGSV,3,3,09,25,01,134,*51
$GNRMC,161605.000,A,5133.4357,N,00431.0042,E,0.454,253.19,190123,,,A*45
$GNVTG,253.19,T,,M,0.454,N,0.842,K,A*24
+GPSRD:$GNGGA,161606.000,5133.4360,N,00431.0043,E,1,8,1.23,-15.2,M,47.2,M,,*52
$GPGSA,A,3,12,22,11,25,20,02,,,,,,,1.54,1.23,0.92*0D
$BDGSA,A,3,13,23,,,,,,,,,,,1.54,1.23,0.92*1B
$GPGSV,4,1,14,29,84,155,,31,60,270,,25,50,102,24,02,45,141,30*7D
$GPGSV,4,2,14,26,26,287,,11,23,044,15,12,22,099,20,22,21,249,23*7E
$GPGSV,4,3,14,18,13,174,14,20,11,069,25,04,06,340,,32,04,222,*7F
$GPGSV,4,4,14,05,01,098,,38,,,*42
$BDGSV,3,1,09,28,52,190,21,23,47,143,29,13,32,074,24,08,32,063,*60
$BDGSV,3,2,09,05,12,120,,27,07,212,17,22,04,356,,19,02,309,*64
$BDGSV,3,3,09,25,01,134,*51
$GNRMC,161606.000,A,5133.4360,N,00431.0043,E,0.633,280.58,190123,,,A*4B
$GNVTG,280.58,T,,M,0.633,N,1.173,K,A*26
+GPSRD:$GNGGA,161607.000,5133.4360,N,00431.0043,E,1,8,1.23,-15.2,M,47.2,M,,*53
$GPGSA,A,3,12,22,11,25,20,02,,,,,,,1.54,1.23,0.92*0D
$BDGSA,A,3,13,23,,,,,,,,,,,1.54,1.23,0.92*1B
$GPGSV,4,1,14,29,84,155,,31,60,270,,25,50,102,24,02,45,141,30*7D
$GPGSV,4,2,14,26,26,287,,11,23,044,16,12,22,099,19,22,21,249,24*70
$GPGSV,4,3,14,18,13,174,14,20,11,069,25,04,06,340,,32,04,222,*7F
$GPGSV,4,4,14,05,01,098,,38,,,*42
$BDGSV,3,1,09,28,52,190,21,23,47,143,29,13,32,074,24,08,32,063,*60
$BDGSV,3,2,09,05,12,120,,27,07,212,17,22,04,356,,19,02,309,*64
$BDGSV,3,3,09,25,01,134,*51
$GNRMC,161607.000,A,5133.4360,N,00431.0043,E,0.620,305.41,190123,,,A*4C
$GNVTG,305.41,T,,M,0.620,N,1.149,K,A*29
+GPSRD:$GNGGA,161608.000,5133.4363,N,00431.0045,E,1,8,1.23,-15.1,M,47.2,M,,*5A
$GPGSA,A,3,12,22,11,25,20,02,,,,,,,1.54,1.23,0.92*0D
$BDGSA,A,3,13,23,,,,,,,,,,,1.54,1.23,0.92*1B
$GPGSV,4,1,14,29,84,150,,31,60,270,,25,50,102,24,02,45,141,30*78
$GPGSV,4,2,14,26,26,287,,11,23,044,14,12,22,099,18,22,21,249,24*73
$GPGSV,4,3,14,18,13,174,14,20,11,069,26,04,06,340,,32,04,222,*7C
$GPGSV,4,4,14,05,01,098,,41,,,*4C
$BDGSV,3,1,09,28,52,190,21,23,47,143,29,13,32,074,24,08,32,063,*60
$BDGSV,3,2,09,05,12,120,,27,07,212,16,22,04,356,,19,02,309,*65
$BDGSV,3,3,09,25,01,134,*51
$GNRMC,161608.000,A,5133.4363,N,00431.0045,E,0.363,315.10,190123,,,A*41
$GNVTG,315.10,T,,M,0.363,N,0.674,K,A*26
+GPSRD:$GNGGA,161609.000,5133.4359,N,00431.0043,E,1,8,1.23,-15.1,M,47.2,M,,*54
$GPGSA,A,3,12,22,11,25,20,02,,,,,,,1.54,1.23,0.92*0D
$BDGSA,A,3,13,23,,,,,,,,,,,1.54,1.23,0.92*1B
$GPGSV,4,1,14,29,84,150,,31,60,270,,25,50,102,24,02,45,141,30*78
$GPGSV,4,2,14,26,26,287,,11,23,044,13,12,22,099,19,22,21,249,24*75
$GPGSV,4,3,14,18,13,174,14,20,11,069,26,04,06,340,,32,04,222,*7C
$GPGSV,4,4,14,05,01,098,,41,,,*4C
$BDGSV,3,1,09,28,52,190,21,23,47,143,29,13,32,074,24,08,32,063,*60
$BDGSV,3,2,09,05,12,120,,27,07,212,16,22,04,356,,19,02,309,*65
$BDGSV,3,3,09,25,01,134,*51
$GNRMC,161609.000,A,5133.4359,N,00431.0043,E,0.678,315.99,190123,,,A*41
$GNVTG,315.99,T,,M,0.678,N,1.257,K,A*2C
+GPSRD:$GNGGA,161610.000,5133.4361,N,00431.0045,E,1,8,1.23,-14.9,M,47.2,M,,*58
$GPGSA,A,3,12,22,11,25,20,02,,,,,,,1.54,1.23,0.92*0D
$BDGSA,A,3,13,23,,,,,,,,,,,1.54,1.23,0.92*1B
$GPGSV,4,1,14,29,84,150,,31,61,269,,25,50,102,24,02,45,141,30*71
$GPGSV,4,2,14,26,26,287,,11,23,044,15,12,22,099,19,22,21,249,24*73
$GPGSV,4,3,14,18,13,174,14,20,11,069,26,04,06,340,,32,04,222,*7C
$GPGSV,4,4,14,05,01,098,,41,,,*4C
$BDGSV,3,1,09,28,52,190,21,23,47,143,29,13,32,074,24,08,32,063,*60
$BDGSV,3,2,09,05,12,120,,27,07,212,16,22,04,356,,19,02,309,*65
$BDGSV,3,3,09,25,01,134,*51
$GNRMC,161610.000,A,5133.4361,N,00431.0045,E,0.323,14.50,190123,,,A*78
$GNVTG,14.50,T,,M,0.323,N,0.598,K,A*15
+GPSRD:$GNGGA,161611.000,5133.4367,N,00431.0046,E,1,8,1.47,-14.9,M,47.2,M,,*5E
$GPGSA,A,3,12,22,11,25,20,02,,,,,,,2.79,1.47,2.37*0E
$BDGSA,A,3,13,23,,,,,,,,,,,2.79,1.47,2.37*18
$GPGSV,4,1,14,29,84,150,,31,61,269,,25,50,102,24,02,45,141,30*71
$GPGSV,4,2,14,26,26,287,,11,23,044,16,12,22,099,19,22,21,249,24*70
$GPGSV,4,3,14,18,13,174,13,20,11,069,26,04,06,340,,32,04,222,*7B
$GPGSV,4,4,14,05,01,098,,41,,,*4C
$BDGSV,3,1,09,28,52,190,21,23,47,143,29,13,32,074,24,08,32,063,*60
$BDGSV,3,2,09,05,12,120,,27,07,212,16,22,04,356,,19,02,309,*65
$BDGSV,3,3,09,25,01,134,*51
$GNRMC,161611.000,A,5133.4367,N,00431.0046,E,0.603,9.78,190123,,,A*4D
$GNVTG,9.78,T,,M,0.603,N,1.116,K,A*27
+GPSRD:$GNGGA,161612.000,5133.4362,N,00431.0047,E,1,8,1.47,-14.8,M,47.2,M,,*58
$GPGSA,A,3,12,22,11,25,20,02,,,,,,,2.79,1.47,2.37*0E
$BDGSA,A,3,13,23,,,,,,,,,,,2.79,1.47,2.37*18
$GPGSV,4,1,14,29,84,150,,31,61,269,,25,50,102,23,02,45,141,30*76
$GPGSV,4,2,14,26,26,287,,11,23,044,17,12,22,099,19,22,21,249,24*71
$GPGSV,4,3,14,18,13,174,13,20,11,069,26,04,06,340,,32,04,222,*7B
$GPGSV,4,4,14,05,01,098,,41,,,*4C
$BDGSV,3,1,09,28,52,190,21,23,47,143,28,13,32,074,24,08,32,063,*61
$BDGSV,3,2,09,05,12,120,,27,07,212,16,22,04,356,,19,02,309,*65
$BDGSV,3,3,09,25,01,134,*51
$GNRMC,161612.000,A,5133.4362,N,00431.0047,E,0.292,152.37,190123,,,A*42
$GNVTG,152.37,T,,M,0.292,N,0.541,K,A*28
+GPSRD:$GNGGA,161613.000,5133.4366,N,00431.0046,E,1,8,1.23,-14.6,M,47.2,M,,*50
$GPGSA,A,3,12,22,11,25,20,02,,,,,,,1.54,1.23,0.92*0D
$BDGSA,A,3,13,23,,,,,,,,,,,1.54,1.23,0.92*1B
$GPGSV,4,1,14,29,84,150,,31,61,269,,25,50,102,23,02,45,141,30*76
$GPGSV,4,2,14,26,26,287,,11,23,044,17,12,22,099,19,22,21,249,24*71
$GPGSV,4,3,14,18,13,174,12,20,11,069,26,04,06,340,,32,04,222,*7A
$GPGSV,4,4,14,05,01,098,,41,,,*4C
$BDGSV,3,1,09,28,52,190,21,23,47,143,28,13,32,074,24,08,32,063,*61
$BDGSV,3,2,09,05,12,120,,27,07,212,16,22,04,356,,19,02,309,*65
$BDGSV,3,3,09,25,01,134,*51
$GNRMC,161613.000,A,5133.4366,N,00431.0046,E,0.159,284.15,190123,,,A*4A
$GNVTG,284.15,T,,M,0.159,N,0.295,K,A*2A
+GPSRD:$GNGGA,161614.000,5133.4369,N,00431.0046,E,1,8,1.23,-14.5,M,47.2,M,,*5B
$GPGSA,A,3,12,22,11,25,20,02,,,,,,,1.54,1.23,0.92*0D
$BDGSA,A,3,13,23,,,,,,,,,,,1.54,1.23,0.92*1B
$GPGSV,4,1,14,29,84,150,,31,61,269,,25,50,102,23,02,45,141,30*76
$GPGSV,4,2,14,26,26,287,,11,23,044,17,12,22,099,19,22,21,249,24*71
$GPGSV,4,3,14,18,13,174,13,20,11,069,26,04,06,340,,32,04,222,*7B
$GPGSV,4,4,14,05,01,098,,41,,,*4C
$BDGSV,3,1,09,28,52,190,22,23,47,143,28,13,32,074,24,08,32,063,*62
$BDGSV,3,2,09,05,12,120,,27,07,212,16,22,04,356,,19,02,309,*65
$BDGSV,3,3,09,25,01,134,*51
$GNRMC,161614.000,A,5133.4369,N,00431.0046,E,0.695,351.95,190123,,,A*44
$GNVTG,351.95,T,,M,0.695,N,1.287,K,A*2E
+GPSRD:$GNGGA,161615.000,5133.4373,N,00431.0045,E,1,8,1.47,-14.3,M,47.2,M,,*56
$GPGSA,A,3,12,22,11,25,20,02,,,,,,,2.79,1.47,2.37*0E
$BDGSA,A,3,13,23,,,,,,,,,,,2.79,1.47,2.37*18
$GPGSV,4,1,14,29,84,150,,31,61,269,,25,50,102,23,02,45,141,30*76
$GPGSV,4,2,14,26,26,287,,11,23,044,16,12,22,099,19,22,21,249,24*70
$GPGSV,4,3,14,18,13,174,13,20,11,069,26,04,06,340,,32,04,222,*7B
$GPGSV,4,4,14,05,01,098,,43,,,*4E
$BDGSV,3,1,09,28,52,190,22,23,47,143,28,13,32,074,24,08,32,063,*62
$BDGSV,3,2,09,05,12,120,,27,07,212,16,22,04,356,,19,02,309,*65
$BDGSV,3,3,09,25,01,134,*51
$GNRMC,161615.000,A,5133.4373,N,00431.0045,E,0.696,1.80,190123,,,A*4C
$GNVTG,1.80,T,,M,0.696,N,1.290,K,A*29
+GPSRD:$GNGGA,161616.000,5133.4373,N,00431.0045,E,1,8,1.47,-14.2,M,47.2,M,,*54
$GPGSA,A,3,12,22,11,25,20,02,,,,,,,2.79,1.47,2.37*0E
$BDGSA,A,3,13,23,,,,,,,,,,,2.79,1.47,2.37*18
$GPGSV,4,1,14,29,84,150,,31,61,269,,25,50,102,23,02,45,141,30*76
$GPGSV,4,2,14,26,26,287,,11,23,044,16,12,22,099,19,22,21,249,24*70
$GPGSV,4,3,14,18,13,174,13,20,11,069,26,04,06,340,,32,04,222,*7B
$GPGSV,4,4,14,05,01,098,,43,,,*4E
$BDGSV,3,1,09,28,52,190,22,23,47,143,28,13,32,074,25,08,32,063,*63
$BDGSV,3,2,09,05,12,120,,27,07,212,16,22,04,356,,19,02,309,*65
$BDGSV,3,3,09,25,01,134,*51
$GNRMC,161616.000,A,5133.4373,N,00431.0045,E,0.640,357.07,190123,,,A*4B
$GNVTG,357.07,T,,M,0.640,N,1.186,K,A*29
+GPSRD:$GNGGA,161617.000,5133.4372,N,00431.0043,E,1,8,1.47,-14.0,M,47.2,M,,*50
$GPGSA,A,3,12,22,11,25,20,02,,,,,,,2.79,1.47,2.37*0E
$BDGSA,A,3,13,23,,,,,,,,,,,2.79,1.47,2.37*18
$GPGSV,4,1,14,29,84,150,,31,61,269,,25,50,102,23,02,45,141,30*76
$GPGSV,4,2,14,26,26,287,,11,23,044,16,12,22,099,20,22,21,249,24*7A
$GPGSV,4,3,14,18,13,174,13,20,11,069,26,04,06,340,,32,04,222,*7B
$GPGSV,4,4,14,05,01,098,,43,,,*4E
$BDGSV,3,1,09,28,52,190,22,23,47,143,28,13,32,074,25,08,32,063,*63
$BDGSV,3,2,09,05,12,120,,27,07,212,16,22,04,356,,19,02,309,*65
$BDGSV,3,3,09,25,01,134,*51
$GNRMC,161617.000,A,5133.4372,N,00431.0043,E,0.224,19.43,190123,,,A*72
$GNVTG,19.43,T,,M,0.224,N,0.414,K,A*19
+GPSRD:$GNGGA,161618.000,5133.4367,N,00431.0043,E,1,8,1.23,-13.9,M,47.2,M,,*57
$GPGSA,A,3,12,22,11,25,20,02,,,,,,,1.54,1.23,0.92*0D
$BDGSA,A,3,13,23,,,,,,,,,,,1.54,1.23,0.92*1B
$GPGSV,4,1,14,29,84,150,,31,61,269,,25,50,102,23,02,45,141,30*76
$GPGSV,4,2,14,26,26,287,,11,23,044,16,12,22,099,20,22,21,249,24*7A
$GPGSV,4,3,14,18,13,174,14,20,11,069,26,04,06,340,,32,04,222,*7C
$GPGSV,4,4,14,05,01,098,,43,,,*4E
$BDGSV,3,1,09,28,52,190,22,23,47,143,28,13,32,074,25,08,32,063,*63
$BDGSV,3,2,09,05,12,120,,27,07,212,16,22,04,356,,19,02,309,*65
$BDGSV,3,3,09,25,01,134,*51
$GNRMC,161618.000,A,5133.4367,N,00431.0043,E,0.448,188.86,190123,,,A*45
$GNVTG,188.86,T,,M,0.448,N,0.830,K,A*2F
+GPSRD:$GNGGA,161619.000,5133.4373,N,00431.0042,E,1,8,1.23,-13.7,M,47.2,M,,*5C
$GPGSA,A,3,12,22,11,25,20,02,,,,,,,1.54,1.23,0.92*0D
$BDGSA,A,3,13,23,,,,,,,,,,,1.54,1.23,0.92*1B
$GPGSV,4,1,14,29,84,150,,31,61,269,,25,50,102,23,02,45,141,30*76
$GPGSV,4,2,14,26,26,287,,11,23,044,16,12,22,099,20,22,21,249,25*7B
$GPGSV,4,3,14,18,13,174,14,20,11,069,26,04,06,340,,32,04,222,*7C
$GPGSV,4,4,14,05,01,098,,43,,,*4E
$BDGSV,3,1,09,28,52,190,21,23,47,143,28,13,32,074,24,08,32,063,*61
$BDGSV,3,2,09,05,12,120,,27,07,212,16,22,04,356,,19,02,309,*65
$BDGSV,3,3,09,25,01,134,*51
$GNRMC,161619.000,A,5133.4373,N,00431.0042,E,0.511,8.94,190123,,,A*47
$GNVTG,8.94,T,,M,0.511,N,0.947,K,A*29
+GPSRD:$GNGGA,161620.000,5133.4374,N,00431.0042,E,1,8,1.47,-13.6,M,47.2,M,,*52
$GPGSA,A,3,12,22,11,25,20,02,,,,,,,2.79,1.47,2.37*0E
$BDGSA,A,3,13,23,,,,,,,,,,,2.79,1.47,2.37*18
$GPGSV,4,1,14,29,84,150,,31,61,269,,25,50,102,23,02,45,141,30*76
$GPGSV,4,2,14,26,26,287,,11,23,044,16,12,22,099,19,22,21,249,25*71
$GPGSV,4,3,14,18,13,174,15,20,11,069,26,04,06,340,,32,04,222,*7D
$GPGSV,4,4,14,05,01,098,,43,,,*4E
$BDGSV,3,1,09,28,52,190,22,23,47,143,28,13,32,074,24,08,32,063,*62
$BDGSV,3,2,09,05,12,120,,27,07,212,16,22,04,356,,19,02,309,*65
$BDGSV,3,3,09,25,01,134,*51
$GNRMC,161620.000,A,5133.4374,N,00431.0042,E,0.273,28.92,190123,,,A*7D
$GNVTG,28.92,T,,M,0.273,N,0.506,K,A*17
+GPSRD:$GNGGA,161621.000,5133.4374,N,00431.0042,E,1,8,1.23,-13.5,M,47.2,M,,*52
$GPGSA,A,3,12,22,11,25,20,02,,,,,,,1.54,1.23,0.92*0D
$BDGSA,A,3,13,23,,,,,,,,,,,1.54,1.23,0.92*1B
$GPGSV,4,1,14,29,84,150,,31,61,269,,25,50,102,23,02,45,141,30*76
$GPGSV,4,2,14,26,26,287,,11,23,044,16,12,22,099,19,22,21,249,25*71
$GPGSV,4,3,14,18,13,174,15,20,11,069,26,04,06,340,,32,04,222,*7D
$GPGSV,4,4,14,05,01,098,,43,,,*4E
$BDGSV,3,1,09,28,52,190,22,23,47,143,27,13,32,074,24,08,32,063,*6D
$BDGSV,3,2,09,05,12,120,,27,07,212,17,22,04,356,,19,02,309,*64
$BDGSV,3,3,09,25,01,134,*51
$GNRMC,161621.000,A,5133.4374,N,00431.0042,E,0.556,0.61,190123,,,A*4A
$GNVTG,0.61,T,,M,0.556,N,1.030,K,A*20
+GPSRD:$GNGGA,161622.000,5133.4370,N,00431.0042,E,1,8,1.47,-13.4,M,47.2,M,,*56
$GPGSA,A,3,12,22,11,25,20,02,,,,,,,2.79,1.47,2.37*0E
$BDGSA,A,3,13,23,,,,,,,,,,,2.79,1.47,2.37*18
$GPGSV,4,1,14,29,84,150,,31,61,269,,25,50,102,23,02,45,141,30*76
$GPGSV,4,2,14,26,26,287,,11,23,044,16,12,22,099,19,22,21,249,24*70
$GPGSV,4,3,14,18,13,174,14,20,11,069,26,04,06,340,,32,04,222,*7C
$GPGSV,4,4,14,05,01,098,,45,,,*48
$BDGSV,3,1,09,28,52,190,22,23,47,143,27,13,32,074,23,08,32,063,*6A
$BDGSV,3,2,09,05,12,120,,27,07,212,17,22,04,356,,19,02,309,*64
$BDGSV,3,3,09,25,01,134,*51
$GNRMC,161622.000,A,5133.4370,N,00431.0042,E,0.257,111.57,190123,,,A*4F
$GNVTG,111.57,T,,M,0.257,N,0.477,K,A*24
+GPSRD:$GNGGA,161623.000,5133.4367,N,00431.0041,E,1,8,1.23,-13.3,M,47.2,M,,*57
$GPGSA,A,3,12,22,11,25,20,02,,,,,,,1.54,1.23,0.92*0D
$BDGSA,A,3,13,23,,,,,,,,,,,1.54,1.23,0.92*1B
$GPGSV,4,1,14,29,84,150,,31,61,269,,25,50,102,22,02,45,141,30*77
$GPGSV,4,2,14,26,26,287,,11,23,044,16,12,22,099,19,22,21,249,24*70
$GPGSV,4,3,14,18,13,174,14,20,11,069,26,04,06,340,,32,04,222,*7C
$GPGSV,4,4,14,05,01,098,,45,,,*48
$BDGSV,3,1,09,28,52,190,21,23,47,143,27,13,32,074,23,08,32,063,*69
$BDGSV,3,2,09,05,12,120,,27,07,212,18,22,04,356,,19,02,309,*6B
$BDGSV,3,3,09,25,01,134,*51
$GNRMC,161623.000,A,5133.4367,N,00431.0041,E,0.155,325.60,190123,,,A*4B
$GNVTG,325.60,T,,M,0.155,N,0.287,K,A*2D
+GPSRD:$GNGGA,161624.000,5133.4362,N,00431.0041,E,1,8,1.23,-13.1,M,47.2,M,,*57
$GPGSA,A,3,12,22,11,25,20,02,,,,,,,1.54,1.23,0.92*0D
$BDGSA,A,3,13,23,,,,,,,,,,,1.54,1.23,0.92*1B
$GPGSV,4,1,14,29,84,150,,31,61,269,,25,50,102,22,02,45,141,30*77
$GPGSV,4,2,14,26,26,287,,11,23,044,16,12,22,099,19,22,21,249,24*70
$GPGSV,4,3,14,18,13,174,13,20,11,069,26,04,06,340,,32,04,222,*7B
$GPGSV,4,4,14,05,01,098,,45,,,*48
$BDGSV,3,1,09,28,52,190,21,23,47,143,27,13,32,074,23,08,32,063,*69
$BDGSV,3,2,09,05,12,120,,27,07,212,18,22,04,356,,19,02,309,*6B
$BDGSV,3,3,09,25,01,134,*51
$GNRMC,161624.000,A,5133.4362,N,00431.0041,E,0.203,217.32,190123,,,A*4E
$GNVTG,217.32,T,,M,0.203,N,0.377,K,A*24
+GPSRD:$GNGGA,161625.000,5133.4359,N,00431.0038,E,1,8,1.23,-13.1,M,47.2,M,,*50
$GPGSA,A,3,12,22,11,25,20,02,,,,,,,1.54,1.23,0.92*0D
$BDGSA,A,3,13,23,,,,,,,,,,,1.54,1.23,0.92*1B
$GPGSV,4,1,14,29,84,150,,31,61,269,,25,50,102,22,02,45,141,30*77
$GPGSV,4,2,14,26,26,287,,11,23,044,16,12,22,099,19,22,21,249,24*70
$GPGSV,4,3,14,18,13,174,13,20,11,069,25,04,06,340,,32,04,222,*78
$GPGSV,4,4,14,05,01,098,,45,,,*48
$BDGSV,3,1,09,28,52,190,21,23,47,143,27,13,32,074,23,08,32,063,*69
$BDGSV,3,2,09,05,12,120,,27,07,212,18,22,04,356,,19,02,309,*6B
$BDGSV,3,3,09,25,01,134,*51
$GNRMC,161625.000,A,5133.4359,N,00431.0038,E,0.358,265.60,190123,,,A*44
$GNVTG,265.60,T,,M,0.358,N,0.663,K,A*29
+GPSRD:$GNGGA,161626.000,5133.4356,N,00431.0035,E,1,8,1.23,-13.0,M,47.2,M,,*50
$GPGSA,A,3,12,22,11,25,20,02,,,,,,,1.54,1.23,0.92*0D
$BDGSA,A,3,13,23,,,,,,,,,,,1.54,1.23,0.92*1B
$GPGSV,4,1,14,29,84,150,,31,61,269,,25,50,102,22,02,45,141,30*77
$GPGSV,4,2,14,26,26,287,,11,23,044,15,12,22,099,19,22,21,249,24*73
$GPGSV,4,3,14,18,13,174,13,20,11,069,25,04,06,340,,32,04,222,*78
$GPGSV,4,4,14,05,01,098,,45,,,*48
$BDGSV,3,1,09,28,52,190,21,23,47,143,27,13,32,074,23,08,32,063,*69
$BDGSV,3,2,09,05,12,120,,27,07,212,18,22,04,356,,19,02,309,*6B
$BDGSV,3,3,09,25,01,134,*51
$GNRMC,161626.000,A,5133.4356,N,00431.0035,E,0.056,300.41,190123,,,A*49
$GNVTG,300.41,T,,M,0.056,N,0.104,K,A*23
+GPSRD:$GNGGA,161627.000,5133.4355,N,00431.0032,E,1,8,1.23,-13.0,M,47.2,M,,*55
$GPGSA,A,3,12,22,11,25,20,02,,,,,,,1.54,1.23,0.92*0D
$BDGSA,A,3,13,23,,,,,,,,,,,1.54,1.23,0.92*1B
$GPGSV,4,1,14,29,84,150,18,31,61,269,,25,50,102,22,02,45,141,30*7E
$GPGSV,4,2,14,26,26,287,,11,23,044,15,12,22,099,18,22,21,249,24*72
$GPGSV,4,3,14,18,13,174,13,20,11,069,25,04,06,340,,32,04,222,*78
$GPGSV,4,4,14,05,01,098,,45,,,*48
$BDGSV,3,1,09,28,52,190,21,23,47,143,27,13,32,073,23,08,32,063,*6E
$BDGSV,3,2,09,05,12,120,,27,07,212,17,22,04,356,,19,02,309,*64
$BDGSV,3,3,09,25,01,134,*51
$GNRMC,161627.000,A,5133.4355,N,00431.0032,E,1.059,320.28,190123,,,A*4F
$GNVTG,320.28,T,,M,1.059,N,1.962,K,A*29
+GPSRD:$GNGGA,161628.000,5133.4365,N,00431.0027,E,1,8,1.23,-12.7,M,47.2,M,,*5B
$GPGSA,A,3,12,22,11,25,20,02,,,,,,,1.54,1.23,0.92*0D
$BDGSA,A,3,13,23,,,,,,,,,,,1.54,1.23,0.92*1B
$GPGSV,4,1,14,29,84,150,17,31,61,269,,25,50,102,22,02,45,141,30*71
$GPGSV,4,2,14,26,26,287,,11,23,044,16,12,22,099,17,22,21,249,24*7E
$GPGSV,4,3,14,18,13,174,14,20,11,069,25,04,06,340,,32,04,222,*7F
$GPGSV,4,4,14,05,01,098,,46,,,*4B
$BDGSV,3,1,09,28,52,190,21,23,47,143,27,13,32,073,23,08,32,063,*6E
$BDGSV,3,2,09,05,12,120,,27,07,212,16,22,04,356,,19,02,309,*65
$BDGSV,3,3,09,25,01,134,*51
$GNRMC,161628.000,A,5133.4365,N,00431.0027,E,1.195,320.28,190123,,,A*46
$GNVTG,320.28,T,,M,1.195,N,2.214,K,A*21
+GPSRD:$GNGGA,161629.000,5133.4366,N,00431.0025,E,1,8,1.23,-12.6,M,47.2,M,,*5A
$GPGSA,A,3,12,22,11,25,20,02,,,,,,,1.54,1.23,0.92*0D
$BDGSA,A,3,13,23,,,,,,,,,,,1.54,1.23,0.92*1B
$GPGSV,4,1,14,29,84,150,17,31,61,269,,25,50,102,22,02,45,141,30*71
$GPGSV,4,2,14,26,26,287,,11,23,044,16,12,22,099,16,22,21,249,24*7F
$GPGSV,4,3,14,18,13,174,15,20,11,069,25,04,06,340,,32,04,222,*7E
$GPGSV,4,4,14,05,01,098,,46,,,*4B
$BDGSV,3,1,09,28,52,190,21,23,47,143,27,13,32,073,23,08,32,063,*6E
$BDGSV,3,2,09,05,12,120,,27,07,212,16,22,04,356,,19,02,309,*65
$BDGSV,3,3,09,25,01,134,*51
$GNRMC,161629.000,A,5133.4366,N,00431.0025,E,0.518,323.47,190123,,,A*4C
$GNVTG,323.47,T,,M,0.518,N,0.960,K,A*21
+GPSRD:$GNGGA,161630.000,5133.4366,N,00431.0025,E,1,8,1.23,-12.6,M,47.2,M,,*52
$GPGSA,A,3,12,22,11,25,20,02,,,,,,,1.54,1.23,0.92*0D
$BDGSA,A,3,13,23,,,,,,,,,,,1.54,1.23,0.92*1B
$GPGSV,4,1,14,29,84,150,19,31,61,269,,25,50,102,22,02,45,141,30*7F
$GPGSV,4,2,14,26,26,287,,11,23,044,16,12,22,099,15,22,21,249,24*7C
$GPGSV,4,3,14,18,13,174,15,20,11,069,25,04,06,340,,32,04,222,*7E
$GPGSV,4,4,14,05,01,098,,46,,,*4B
$BDGSV,3,1,09,28,52,190,21,23,47,143,27,13,32,073,24,08,32,063,*69
$BDGSV,3,2,09,05,12,120,,27,07,212,16,22,04,356,,19,02,309,*65
$BDGSV,3,3,09,25,01,134,*51
$GNRMC,161630.000,A,5133.4366,N,00431.0025,E,0.365,287.01,190123,,,A*45
$GNVTG,287.01,T,,M,0.365,N,0.677,K,A*29
+GPSRD:$GNGGA,161631.000,5133.4369,N,00431.0023,E,1,8,1.23,-12.4,M,47.2,M,,*58
$GPGSA,A,3,12,22,11,25,20,02,,,,,,,1.54,1.23,0.92*0D
$BDGSA,A,3,13,23,,,,,,,,,,,1.54,1.23,0.92*1B
$GPGSV,4,1,14,29,84,150,18,31,61,269,,25,50,102,22,02,45,141,30*7E
$GPGSV,4,2,14,26,26,287,,11,23,044,16,12,22,099,15,22,21,249,25*7D
$GPGSV,4,3,14,18,13,174,15,20,11,069,25,04,06,340,,32,04,222,*7E
$GPGSV,4,4,14,05,01,098,,46,,,*4B
$BDGSV,3,1,09,28,52,190,21,23,47,143,27,13,32,073,24,08,32,063,*69
$BDGSV,3,2,09,05,12,120,,27,07,212,16,22,04,356,,19,02,309,*65
$BDGSV,3,3,09,25,01,134,*51
$GNRMC,161631.000,A,5133.4369,N,00431.0023,E,0.155,315.72,190123,,,A*42
$GNVTG,315.72,T,,M,0.155,N,0.287,K,A*2D
+GPSRD:$GNGGA,161632.000,5133.4363,N,00431.0024,E,1,8,1.23,-12.3,M,47.2,M,,*51
$GPGSA,A,3,12,22,11,25,20,02,,,,,,,1.54,1.23,0.92*0D
$BDGSA,A,3,13,23,,,,,,,,,,,1.54,1.23,0.92*1B
$GPGSV,4,1,14,29,84,150,18,31,61,269,,25,50,102,22,02,45,141,30*7E
$GPGSV,4,2,14,26,26,287,,11,23,044,16,12,22,099,16,22,21,249,25*7E
$GPGSV,4,3,14,18,13,174,15,20,11,069,25,04,06,340,,32,04,222,*7E
$GPGSV,4,4,14,05,01,098,,46,,,*4B
$BDGSV,3,1,09,28,52,190,21,23,47,143,26,13,32,073,24,08,32,063,*68
$BDGSV,3,2,09,05,12,120,,27,07,212,16,22,04,356,,19,02,309,*65
$BDGSV,3,3,09,25,01,134,*51
$GNRMC,161632.000,A,5133.4363,N,00431.0024,E,0.281,356.21,190123,,,A*47
$GNVTG,356.21,T,,M,0.281,N,0.520,K,A*2C
+GPSRD:$GNGGA,161633.000,5133.4360,N,00431.0024,E,1,8,1.47,-12.3,M,47.2,M,,*51
$GPGSA,A,3,12,22,11,25,20,02,,,,,,,2.79,1.47,2.37*0E
$BDGSA,A,3,13,23,,,,,,,,,,,2.79,1.47,2.37*18
$GPGSV,4,1,14,29,84,150,17,31,61,269,,25,50,102,23,02,45,141,30*70
$GPGSV,4,2,14,26,26,287,,11,23,044,16,12,22,099,15,22,21,249,26*7E
$GPGSV,4,3,14,18,13,174,15,20,11,069,25,04,06,340,,32,04,222,*7E
$GPGSV,4,4,14,05,01,098,,46,,,*4B
$BDGSV,3,1,09,28,52,190,21,23,47,143,26,13,32,073,23,08,32,063,*6F
$BDGSV,3,2,09,05,12,120,,27,07,212,16,22,04,356,,19,02,308,*64
$BDGSV,3,3,09,25,01,134,*51
$GNRMC,161633.000,A,5133.4360,N,00431.0024,E,0.277,289.97,190123,,,A*42
$GNVTG,289.97,T,,M,0.277,N,0.514,K,A*2C
+GPSRD:$GNGGA,161634.000,5133.4364,N,00431.0024,E,1,8,1.23,-12.3,M,47.2,M,,*50
$GPGSA,A,3,12,22,11,25,20,02,,,,,,,1.54,1.23,0.92*0D
$BDGSA,A,3,13,23,,,,,,,,,,,1.54,1.23,0.92*1B
$GPGSV,4,1,14,29,84,150,17,31,61,269,,25,50,102,23,02,45,141,30*70
$GPGSV,4,2,14,26,26,287,,11,23,044,16,12,22,099,16,22,21,249,26*7D
$GPGSV,4,3,14,18,13,174,16,20,11,069,25,04,06,340,,32,04,222,*7D
$GPGSV,4,4,14,05,01,098,,47,,,*4A
$BDGSV,3,1,09,28,52,190,21,23,47,143,26,13,32,073,23,08,32,063,*6F
$BDGSV,3,2,09,05,12,120,,27,07,212,16,22,04,356,,19,02,308,*64
$BDGSV,3,3,09,25,01,134,*51
$GNRMC,161634.000,A,5133.4364,N,00431.0024,E,0.421,335.58,190123,,,A*41
$GNVTG,335.58,T,,M,0.421,N,0.781,K,A*22
+GPSRD:$GNGGA,161635.000,5133.4364,N,00431.0022,E,1,8,1.23,-12.3,M,47.2,M,,*57
$GPGSA,A,3,12,22,11,25,20,02,,,,,,,1.54,1.23,0.92*0D
$BDGSA,A,3,13,23,,,,,,,,,,,1.54,1.23,0.92*1B
$GPGSV,4,1,14,29,84,150,18,31,61,269,,25,50,102,23,02,45,141,30*7F
$GPGSV,4,2,14,26,26,287,,11,23,044,16,12,22,099,15,22,21,249,26*7E
$GPGSV,4,3,14,18,13,174,16,20,11,069,25,04,06,340,,32,04,222,*7D
$GPGSV,4,4,14,05,01,098,,47,,,*4A
$BDGSV,3,1,09,28,52,190,21,23,47,143,26,13,32,073,23,08,32,063,*6F
$BDGSV,3,2,09,05,12,120,,27,07,212,16,22,04,356,,19,02,308,*64
$BDGSV,3,3,09,25,01,134,*51
$GNRMC,161635.000,A,5133.4364,N,00431.0022,E,0.510,286.40,190123,,,A*45
$GNVTG,286.40,T,,M,0.510,N,0.945,K,A*27
+GPSRD:$GNGGA,161636.000,5133.4365,N,00431.0021,E,1,8,1.23,-12.3,M,47.2,M,,*56
$GPGSA,A,3,12,22,11,25,20,02,,,,,,,1.54,1.23,0.92*0D
$BDGSA,A,3,13,23,,,,,,,,,,,1.54,1.23,0.92*1B
$GPGSV,4,1,14,29,84,150,18,31,61,269,,25,50,102,23,02,45,141,30*7F
$GPGSV,4,2,14,26,26,287,,11,23,044,17,12,22,099,15,22,21,249,26*7F
$GPGSV,4,3,14,18,13,174,16,20,11,069,25,04,06,340,,32,04,222,*7D
$GPGSV,4,4,14,05,01,098,,47,,,*4A
$BDGSV,3,1,09,28,52,190,21,23,47,143,26,13,32,073,24,08,32,063,*68
$BDGSV,3,2,09,05,12,120,,27,07,212,16,22,04,355,,19,02,308,*67
$BDGSV,3,3,09,25,01,134,*51
$GNRMC,161636.000,A,5133.4365,N,00431.0021,E,0.555,324.89,190123,,,A*49
$GNVTG,324.89,T,,M,0.555,N,1.028,K,A*29
+GPSRD:$GNGGA,161637.000,5133.4365,N,00431.0020,E,1,8,1.23,-12.3,M,47.2,M,,*56
$GPGSA,A,3,12,22,11,25,20,02,,,,,,,1.54,1.23,0.92*0D
$BDGSA,A,3,13,23,,,,,,,,,,,1.54,1.23,0.92*1B
$GPGSV,4,1,14,29,84,150,18,31,61,269,,25,50,102,23,02,45,141,30*7F
$GPGSV,4,2,14,26,26,287,,11,23,044,17,12,22,099,16,22,21,249,26*7C
$GPGSV,4,3,14,18,13,174,16,20,11,069,25,04,06,340,,32,04,222,*7D
$GPGSV,4,4,14,05,01,098,,47,,,*4A
$BDGSV,3,1,09,28,52,190,21,23,46,144,26,13,32,073,24,08,32,063,*6E
$BDGSV,3,2,09,05,12,120,,27,07,212,16,22,04,355,,19,02,308,*67
$BDGSV,3,3,09,25,01,134,*51
$GNRMC,161637.000,A,5133.4365,N,00431.0020,E,0.305,290.95,190123,,,A*49
$GNVTG,290.95,T,,M,0.305,N,0.565,K,A*24
+GPSRD:$GNGGA,161638.000,5133.4365,N,00431.0019,E,1,8,1.23,-12.3,M,47.2,M,,*53
$GPGSA,A,3,12,22,11,25,20,02,,,,,,,1.54,1.23,0.92*0D
$BDGSA,A,3,13,23,,,,,,,,,,,1.54,1.23,0.92*1B
$GPGSV,4,1,14,29,84,150,18,31,61,269,,25,50,102,23,02,45,141,30*7F
$GPGSV,4,2,14,26,26,287,,11,23,044,17,12,22,099,16,22,21,249,26*7C
$GPGSV,4,3,14,18,13,174,16,20,11,069,25,04,06,340,,32,04,222,*7D
$GPGSV,4,4,14,05,01,098,,47,,,*4A
$BDGSV,3,1,09,28,52,190,21,23,46,144,26,13,32,073,24,08,32,063,*6E
$BDGSV,3,2,09,05,12,120,,27,07,212,17,22,04,355,,19,02,308,*66
$BDGSV,3,3,09,25,01,134,*51
$GNRMC,161638.000,A,5133.4365,N,00431.0019,E,0.550,356.19,190123,,,A*45
$GNVTG,356.19,T,,M,0.550,N,1.020,K,A*28
+GPSRD:$GNGGA,161639.000,5133.4364,N,00431.0019,E,1,8,1.47,-12.4,M,47.2,M,,*56
$GPGSA,A,3,12,22,11,25,20,02,,,,,,,2.79,1.47,2.37*0E
$BDGSA,A,3,13,23,,,,,,,,,,,2.79,1.47,2.37*18
$GPGSV,4,1,14,29,84,150,18,31,61,269,,25,50,102,23,02,45,141,30*7F
$GPGSV,4,2,14,26,26,287,,11,23,044,17,12,22,099,16,22,21,249,26*7C
$GPGSV,4,3,14,18,13,174,16,20,11,069,25,04,06,340,,32,04,222,*7D
$GPGSV,4,4,14,05,01,098,,47,,,*4A
$BDGSV,2,1,08,28,52,190,21,23,46,144,26,13,32,073,24,08,32,063,*6E
$BDGSV,2,2,08,05,12,120,,27,07,212,17,22,04,355,,19,02,308,*66
$GNRMC,161639.000,A,5133.4364,N,00431.0019,E,0.446,6.65,190123,,,A*4E
$GNVTG,6.65,T,,M,0.446,N,0.827,K,A*2D
+GPSRD:$GNGGA,161640.000,5133.4365,N,00431.0019,E,1,8,1.47,-12.4,M,47.2,M,,*59
$GPGSA,A,3,12,22,11,25,20,02,,,,,,,2.79,1.47,2.37*0E
$BDGSA,A,3,13,23,,,,,,,,,,,2.79,1.47,2.37*18
$GPGSV,4,1,14,29,84,150,18,31,61,269,,25,50,102,23,02,45,141,30*7F
$GPGSV,4,2,14,26,26,287,,11,23,044,17,12,22,099,16,22,21,249,26*7C
$GPGSV,4,3,14,18,13,174,16,20,11,069,25,04,06,340,,32,04,222,*7D
$GPGSV,4,4,14,05,01,098,,49,,,*44
$BDGSV,2,1,08,28,52,190,21,23,46,144,26,13,32,073,24,08,32,063,*6E
$BDGSV,2,2,08,05,12,120,,27,07,212,17,22,04,355,,19,02,308,*66
$GNRMC,161640.000,A,5133.4365,N,00431.0019,E,0.108,229.26,190123,,,A*46
$GNVTG,229.26,T,,M,0.108,N,0.199,K,A*26
+GPSRD:$GNGGA,161641.000,5133.4364,N,00431.0019,E,1,8,1.23,-12.3,M,47.2,M,,*5C
$GPGSA,A,3,12,22,11,25,20,02,,,,,,,1.54,1.23,0.92*0D
$BDGSA,A,3,13,23,,,,,,,,,,,1.54,1.23,0.92*1B
$GPGSV,4,1,14,29,84,150,18,31,61,269,,25,50,102,23,02,45,141,30*7F
$GPGSV,4,2,14,26,26,287,,11,23,044,18,12,22,099,15,22,21,249,25*73
$GPGSV,4,3,14,18,13,174,16,20,11,069,25,04,06,340,,32,04,222,*7D
$GPGSV,4,4,14,05,01,098,,49,,,*44
$BDGSV,2,1,08,28,52,190,21,23,46,144,25,13,32,073,24,08,32,063,*6D
$BDGSV,2,2,08,05,12,120,,27,08,212,17,22,04,355,,19,02,308,*69
$GNRMC,161641.000,A,5133.4364,N,00431.0019,E,0.235,118.72,190123,,,A*4B
$GNVTG,118.72,T,,M,0.235,N,0.436,K,A*2B
+GPSRD:$GNGGA,161642.000,5133.4361,N,00431.0020,E,1,8,1.23,-12.3,M,47.2,M,,*50
$GPGSA,A,3,12,22,11,25,20,02,,,,,,,1.54,1.23,0.92*0D
$BDGSA,A,3,13,23,,,,,,,,,,,1.54,1.23,0.92*1B
$GPGSV,4,1,14,29,84,150,18,31,61,269,,25,50,102,24,02,45,141,30*78
$GPGSV,4,2,14,26,26,287,,11,23,044,18,12,22,099,14,22,21,249,25*72
$GPGSV,4,3,14,18,13,174,16,20,11,069,25,04,06,340,,32,04,222,*7D
$GPGSV,4,4,14,05,01,098,,49,,,*44
$BDGSV,2,1,08,28,53,190,21,23,46,144,25,13,32,073,24,08,32,063,*6C
$BDGSV,2,2,08,05,12,120,,27,08,212,17,22,04,355,,19,02,308,*69
$GNRMC,161642.000,A,5133.4361,N,00431.0020,E,0.582,176.89,190123,,,A*40
$GNVTG,176.89,T,,M,0.582,N,1.078,K,A*23
+GPSRD:$GNGGA,161643.000,5133.4359,N,00431.0020,E,1,8,1.23,-12.3,M,47.2,M,,*5A
$GPGSA,A,3,12,22,11,25,20,02,,,,,,,1.54,1.23,0.92*0D
$BDGSA,A,3,13,23,,,,,,,,,,,1.54,1.23,0.92*1B
$GPGSV,4,1,14,29,84,150,18,31,61,269,,25,50,102,24,02,45,141,30*78
$GPGSV,4,2,14,26,26,287,,11,23,044,18,12,22,099,15,22,21,249,25*73
$GPGSV,4,3,14,18,13,174,16,20,11,069,25,04,06,340,,32,04,222,*7D
$GPGSV,4,4,14,05,01,098,,49,,,*44
$BDGSV,2,1,08,28,53,190,21,23,46,144,25,13,32,073,24,08,32,063,*6C
$BDGSV,2,2,08,05,12,120,,27,08,212,17,22,04,355,,19,02,308,*69
$GNRMC,161643.000,A,5133.4359,N,00431.0020,E,0.407,199.75,190123,,,A*44
$GNVTG,199.75,T,,M,0.407,N,0.754,K,A*25
+GPSRD:$GNGGA,161644.000,5133.4356,N,00431.0018,E,1,8,1.23,-12.3,M,47.2,M,,*59
$GPGSA,A,3,12,22,11,25,20,02,,,,,,,1.54,1.23,0.92*0D
$BDGSA,A,3,13,23,,,,,,,,,,,1.54,1.23,0.92*1B
$GPGSV,4,1,14,29,84,150,18,31,61,269,,25,50,102,24,02,45,141,30*78
$GPGSV,4,2,14,26,26,287,,11,23,044,18,12,22,099,15,22,21,249,26*70
$GPGSV,4,3,14,18,13,174,16,20,11,069,25,04,06,340,,32,04,222,*7D
$GPGSV,4,4,14,05,01,098,,49,,,*44
$BDGSV,2,1,08,28,53,190,21,23,46,144,25,13,32,073,24,08,32,063,*6C
$BDGSV,2,2,08,05,12,120,,27,08,212,17,22,04,355,,19,02,308,*69
$GNRMC,161644.000,A,5133.4356,N,00431.0018,E,0.725,227.80,190123,,,A*48
$GNVTG,227.80,T,,M,0.725,N,1.343,K,A*29
+GPSRD:$GNGGA,161645.000,5133.4354,N,00431.0017,E,1,8,1.23,-12.3,M,47.2,M,,*55
$GPGSA,A,3,12,22,11,25,20,02,,,,,,,1.54,1.23,0.92*0D
$BDGSA,A,3,13,23,,,,,,,,,,,1.54,1.23,0.92*1B
$GPGSV,4,1,14,29,84,150,18,31,61,269,,25,50,102,24,02,45,141,30*78
$GPGSV,4,2,14,26,26,287,,11,23,044,19,12,22,099,15,22,21,249,26*71
$GPGSV,4,3,14,18,13,174,16,20,11,069,25,04,06,340,,32,04,222,*7D
$GPGSV,4,4,14,05,01,098,,49,,,*44
$BDGSV,2,1,08,28,53,190,21,23,46,144,24,13,32,073,24,08,32,063,*6D
$BDGSV,2,2,08,05,12,120,,27,08,212,17,22,04,355,,19,02,308,*69
$GNRMC,161645.000,A,5133.4354,N,00431.0017,E,0.146,229.13,190123,,,A*43
$GNVTG,229.13,T,,M,0.146,N,0.271,K,A*2F
+GPSRD:$GNGGA,161646.000,5133.4350,N,00431.0017,E,1,8,1.23,-12.3,M,47.2,M,,*52
$GPGSA,A,3,12,22,11,25,20,02,,,,,,,1.54,1.23,0.92*0D
$BDGSA,A,3,13,23,,,,,,,,,,,1.54,1.23,0.92*1B
$GPGSV,4,1,14,29,84,150,18,31,61,269,,25,50,102,24,02,45,141,30*78
$GPGSV,4,2,14,26,26,287,,11,23,044,19,12,22,099,16,22,21,249,26*72
$GPGSV,4,3,14,18,13,174,15,20,11,069,25,04,06,340,,32,04,222,*7E
$GPGSV,4,4,14,05,01,098,,49,,,*44
$BDGSV,2,1,08,28,53,190,21,23,46,144,24,13,32,073,24,08,32,063,*6D
$BDGSV,2,2,08,05,12,120,,27,08,212,17,22,04,355,,19,02,308,*69
$GNRMC,161646.000,A,5133.4350,N,00431.0017,E,0.535,204.79,190123,,,A*47
$GNVTG,204.79,T,,M,0.535,N,0.992,K,A*2A
+GPSRD:$GNGGA,161647.000,5133.4346,N,00431.0016,E,1,8,1.23,-12.3,M,47.2,M,,*55
$GPGSA,A,3,12,22,11,25,20,02,,,,,,,1.54,1.23,0.92*0D
$BDGSA,A,3,13,23,,,,,,,,,,,1.54,1.23,0.92*1B
$GPGSV,4,1,14,29,84,150,18,31,61,269,,25,50,102,24,02,45,141,30*78
$GPGSV,4,2,14,37,28,158,,26,26,287,,11,23,044,19,12,22,099,16*78
$GPGSV,4,3,14,22,21,249,26,18,13,174,15,20,11,069,25,04,06,340,*71
$GPGSV,4,4,14,32,04,222,,05,01,098,*7E
$BDGSV,2,1,08,28,53,190,21,23,46,144,24,13,32,073,24,08,32,063,*6D
$BDGSV,2,2,08,05,12,120,,27,08,212,17,22,04,355,,19,02,308,*69
$GNRMC,161647.000,A,5133.4346,N,00431.0016,E,0.366,197.90,190123,,,A*4E
$GNVTG,197.90,T,,M,0.366,N,0.677,K,A*20
+GPSRD:$GNGGA,161648.000,5133.4342,N,00431.0016,E,1,8,1.23,-12.3,M,47.2,M,,*5E
$GPGSA,A,3,12,22,11,25,20,02,,,,,,,1.54,1.23,0.92*0D
$BDGSA,A,3,13,23,,,,,,,,,,,1.54,1.23,0.92*1B
$GPGSV,4,1,14,29,84,150,18,31,61,269,,25,50,102,24,02,45,141,30*78
$GPGSV,4,2,14,37,28,158,,26,26,287,,11,23,044,19,12,22,099,16*78
$GPGSV,4,3,14,22,21,249,26,18,13,174,15,20,11,069,25,04,06,340,*71
$GPGSV,4,4,14,32,04,222,,05,01,098,*7E
$BDGSV,2,1,08,28,53,190,21,23,46,144,24,13,32,073,24,08,32,063,*6D
$BDGSV,2,2,08,05,12,120,,27,08,212,17,22,04,355,,19,02,308,*69
$GNRMC,161648.000,A,5133.4342,N,00431.0016,E,0.640,188.61,190123,,,A*44
$GNVTG,188.61,T,,M,0.640,N,1.186,K,A*29
+GPSRD:$GNGGA,161649.000,5133.4338,N,00431.0016,E,1,8,1.23,-12.3,M,47.2,M,,*52
$GPGSA,A,3,12,22,11,25,20,02,,,,,,,1.54,1.23,0.92*0D
$BDGSA,A,3,13,23,,,,,,,,,,,1.54,1.23,0.92*1B
$GPGSV,4,1,14,29,84,150,18,31,61,269,,25,50,102,24,02,45,141,30*78
$GPGSV,4,2,14,37,28,158,,26,26,287,,11,23,044,19,12,22,099,15*7B
$GPGSV,4,3,14,22,21,249,26,18,13,174,15,20,11,069,25,04,06,340,*71
$GPGSV,4,4,14,32,04,222,,05,01,098,*7E
$BDGSV,2,1,08,28,53,190,21,23,46,144,24,13,32,073,24,08,32,063,*6D
$BDGSV,2,2,08,05,12,120,,27,08,212,17,22,04,355,,19,02,308,*69
$GNRMC,161649.000,A,5133.4338,N,00431.0016,E,0.507,190.89,190123,,,A*47
$GNVTG,190.89,T,,M,0.507,N,0.939,K,A*2B
+GPSRD:$GNGGA,161650.000,5133.4335,N,00431.0017,E,1,8,1.23,-12.4,M,47.2,M,,*51
$GPGSA,A,3,12,22,11,25,20,02,,,,,,,1.54,1.23,0.92*0D
$BDGSA,A,3,13,23,,,,,,,,,,,1.54,1.23,0.92*1B
$GPGSV,4,1,14,29,84,150,18,31,61,269,,25,50,102,25,02,45,141,30*79
$GPGSV,4,2,14,37,28,158,,26,26,287,,11,23,044,19,12,22,099,15*7B
$GPGSV,4,3,14,22,21,249,26,18,13,174,15,20,11,069,25,04,06,340,*71
$GPGSV,4,4,14,32,04,222,,05,01,098,*7E
$BDGSV,2,1,08,28,53,190,21,23,46,144,24,13,32,073,24,08,32,063,*6D
$BDGSV,2,2,08,05,12,120,,27,08,212,17,22,04,355,,19,02,308,*69
$GNRMC,161650.000,A,5133.4335,N,00431.0017,E,0.127,136.28,190123,,,A*42
$GNVTG,136.28,T,,M,0.127,N,0.236,K,A*2E
+GPSRD:$GNGGA,161651.000,5133.4331,N,00431.0020,E,1,8,1.23,-12.4,M,47.2,M,,*50
$GPGSA,A,3,12,22,11,25,20,02,,,,,,,1.54,1.23,0.92*0D
$BDGSA,A,3,13,23,,,,,,,,,,,1.54,1.23,0.92*1B
$GPGSV,4,1,14,29,84,150,18,31,61,269,,25,50,102,25,02,45,141,30*79
$GPGSV,4,2,14,37,28,158,,26,26,287,,11,23,044,19,12,22,099,16*78
$GPGSV,4,3,14,22,21,249,25,18,13,174,15,20,11,069,25,04,06,340,*72
$GPGSV,4,4,14,32,04,222,,05,01,098,*7E
$BDGSV,2,1,08,28,53,190,21,23,46,144,24,13,32,073,24,08,32,063,*6D
$BDGSV,2,2,08,05,12,120,,27,08,212,17,22,04,355,,19,02,308,*69
$GNRMC,161651.000,A,5133.4331,N,00431.0020,E,0.261,91.87,190123,,,A*7B
$GNVTG,91.87,T,,M,0.261,N,0.484,K,A*19
+GPSRD:$GNGGA,161652.000,5133.4328,N,00431.0022,E,1,8,1.23,-12.5,M,47.2,M,,*58
$GPGSA,A,3,12,22,11,25,20,02,,,,,,,1.54,1.23,0.92*0D
$BDGSA,A,3,13,23,,,,,,,,,,,1.54,1.23,0.92*1B
$GPGSV,4,1,14,29,84,150,18,31,61,269,,25,50,102,25,02,45,141,30*79
$GPGSV,4,2,14,37,28,158,,26,26,287,,11,23,044,19,12,22,099,16*78
$GPGSV,4,3,14,22,21,249,25,18,13,174,15,20,11,069,25,04,06,340,*72
$GPGSV,4,4,14,32,04,222,,05,01,098,*7E
$BDGSV,2,1,08,28,53,190,21,23,46,144,24,13,32,073,24,08,32,063,*6D
$BDGSV,2,2,08,05,12,120,,27,08,212,17,22,04,355,,19,02,308,*69
$GNRMC,161652.000,A,5133.4328,N,00431.0022,E,0.497,104.59,190123,,,A*43
$GNVTG,104.59,T,,M,0.497,N,0.920,K,A*2B
+GPSRD:$GNGGA,161653.000,5133.4326,N,00431.0023,E,1,8,1.23,-12.5,M,47.2,M,,*56
$GPGSA,A,3,12,22,11,25,20,02,,,,,,,1.54,1.23,0.92*0D
$BDGSA,A,3,13,23,,,,,,,,,,,1.54,1.23,0.92*1B
$GPGSV,4,1,14,29,84,150,19,31,61,269,,25,50,102,25,02,45,141,30*78
$GPGSV,4,2,14,37,28,158,,26,26,287,,11,23,044,19,12,22,099,16*78
$GPGSV,4,3,14,22,21,249,25,18,13,174,16,20,11,069,25,04,06,340,*71
$GPGSV,4,4,14,32,04,222,,05,01,098,*7E
$BDGSV,2,1,08,28,53,190,21,23,46,144,24,13,32,073,24,08,32,063,*6D
$BDGSV,2,2,08,05,12,120,,27,08,212,17,22,04,355,,19,02,308,*69
$GNRMC,161653.000,A,5133.4326,N,00431.0023,E,0.275,30.12,190123,,,A*7E
$GNVTG,30.12,T,,M,0.275,N,0.509,K,A*1F
+GPSRD:$GNGGA,161654.000,5133.4326,N,00431.0023,E,1,8,1.23,-12.6,M,47.2,M,,*52
$GPGSA,A,3,12,22,11,25,20,02,,,,,,,1.54,1.23,0.92*0D
$BDGSA,A,3,13,23,,,,,,,,,,,1.54,1.23,0.92*1B
$GPGSV,4,1,14,29,84,150,19,31,61,269,,25,50,102,25,02,45,141,30*78
$GPGSV,4,2,14,37,28,158,,26,26,287,,11,23,044,19,12,22,099,16*78
$GPGSV,4,3,14,22,21,249,25,18,13,174,15,20,11,069,25,04,06,340,*72
$GPGSV,4,4,14,32,04,222,,05,01,098,*7E
$BDGSV,2,1,08,28,53,190,20,23,46,144,24,13,32,073,24,08,32,063,*6C
$BDGSV,2,2,08,05,12,120,,27,08,212,17,22,04,355,,19,02,308,*69
$GNRMC,161654.000,A,5133.4326,N,00431.0023,E,0.442,9.21,190123,,,A*41
$GNVTG,9.21,T,,M,0.442,N,0.820,K,A*21
+GPSRD:$GNGGA,161655.000,5133.4325,N,00431.0021,E,1,8,1.47,-12.6,M,47.2,M,,*50
$GPGSA,A,3,12,22,11,25,20,02,,,,,,,2.79,1.47,2.37*0E
$BDGSA,A,3,13,23,,,,,,,,,,,2.79,1.47,2.37*18
$GPGSV,4,1,14,29,84,150,19,31,61,269,,25,50,102,25,02,45,141,29*70
$GPGSV,4,2,14,37,28,158,,26,26,287,,11,23,044,19,12,22,099,16*78
$GPGSV,4,3,14,22,21,249,25,18,13,174,15,20,11,069,25,04,06,340,*72
$GPGSV,4,4,14,32,04,222,,05,01,098,*7E
$BDGSV,2,1,08,28,53,190,20,23,46,144,23,13,32,073,23,08,32,063,*6C
$BDGSV,2,2,08,05,12,120,,27,08,212,17,22,04,355,,19,02,308,*69
$GNRMC,161655.000,A,5133.4325,N,00431.0021,E,0.504,316.18,190123,,,A*45
$GNVTG,316.18,T,,M,0.504,N,0.934,K,A*21
+GPSRD:$GNGGA,161656.000,5133.4324,N,00431.0018,E,1,8,1.23,-12.6,M,47.2,M,,*5A
$GPGSA,A,3,12,22,11,25,20,02,,,,,,,1.54,1.23,0.92*0D
$BDGSA,A,3,13,23,,,,,,,,,,,1.54,1.23,0.92*1B
$GPGSV,4,1,14,29,84,150,19,31,61,269,,25,50,102,25,02,45,141,29*70
$GPGSV,4,2,14,33,28,204,,26,26,287,,11,23,044,19,12,22,099,16*76
$GPGSV,4,3,14,22,21,249,24,18,13,174,14,20,11,069,25,04,06,340,*72
$GPGSV,4,4,14,32,04,222,,05,01,098,*7E
$BDGSV,2,1,08,28,53,190,20,23,46,144,22,13,32,073,23,08,32,063,*6D
$BDGSV,2,2,08,05,12,120,,27,08,212,17,22,04,355,,19,02,308,*69
$GNRMC,161656.000,A,5133.4324,N,00431.0018,E,0.329,267.41,190123,,,A*4F
$GNVTG,267.41,T,,M,0.329,N,0.610,K,A*2A
+GPSRD:$GNGGA,161657.000,5133.4323,N,00431.0018,E,1,8,1.23,-12.7,M,47.2,M,,*5D
$GPGSA,A,3,12,22,11,25,20,02,,,,,,,1.54,1.23,0.92*0D
$BDGSA,A,3,13,23,,,,,,,,,,,1.54,1.23,0.92*1B
$GPGSV,4,1,14,29,84,150,18,31,61,269,,25,50,102,25,02,45,141,29*71
$GPGSV,4,2,14,33,28,204,,26,26,287,,11,23,044,19,12,22,099,16*76
$GPGSV,4,3,14,22,21,249,24,18,13,174,14,20,11,069,25,04,06,340,*72
$GPGSV,4,4,14,32,04,222,,05,01,098,*7E
$BDGSV,2,1,08,28,53,190,20,23,46,144,21,13,32,073,23,08,32,063,*6E
$BDGSV,2,2,08,05,12,120,,27,08,212,17,22,04,355,,19,02,308,*69
$GNRMC,161657.000,A,5133.4323,N,00431.0018,E,0.372,23.07,190123,,,A*77
$GNVTG,23.07,T,,M,0.372,N,0.689,K,A*14
+GPSRD:$GNGGA,161658.000,5133.4322,N,00431.0018,E,1,8,1.23,-12.7,M,47.2,M,,*53
$GPGSA,A,3,12,22,11,25,20,02,,,,,,,1.54,1.23,0.92*0D
$BDGSA,A,3,13,23,,,,,,,,,,,1.54,1.23,0.92*1B
$GPGSV,4,1,14,29,84,150,18,31,61,269,,25,50,102,25,02,46,140,29*73
$GPGSV,4,2,14,33,28,204,,26,26,287,,11,23,044,19,12,22,099,15*75
$GPGSV,4,3,14,22,21,249,24,18,13,174,14,20,11,069,25,04,06,340,*72
$GPGSV,4,4,14,32,04,222,,05,01,098,*7E
$BDGSV,2,1,08,28,53,190,20,23,46,144,20,13,32,073,23,08,32,063,*6F
$BDGSV,2,2,08,05,12,120,,27,08,212,17,22,04,355,,19,02,308,*69
$GNRMC,161658.000,A,5133.4322,N,00431.0018,E,0.294,16.16,190123,,,A*76
$GNVTG,16.16,T,,M,0.294,N,0.545,K,A*18
+GPSRD:$GNGGA,161659.000,5133.4322,N,00431.0016,E,1,8,1.23,-12.8,M,47.2,M,,*53
$GPGSA,A,3,12,22,11,25,20,02,,,,,,,1.54,1.23,0.92*0D
$BDGSA,A,3,13,23,,,,,,,,,,,1.54,1.23,0.92*1B
$GPGSV,4,1,14,29,84,150,18,31,61,269,,25,50,102,25,02,46,140,29*73
$GPGSV,4,2,14,33,28,204,,26,26,287,,11,23,044,19,12,22,099,14*74
$GPGSV,4,3,14,22,21,249,24,18,13,174,15,20,11,069,25,04,06,340,*73
$GPGSV,4,4,14,32,04,222,,05,01,098,*7E
$BDGSV,2,1,08,28,53,190,20,23,46,144,20,13,32,073,23,08,32,063,*6F
$BDGSV,2,2,08,05,12,120,,27,08,212,17,22,04,355,,19,02,308,*69
$GNRMC,161659.000,A,5133.4322,N,00431.0016,E,0.295,326.25,190123,,,A*48
$GNVTG,326.25,T,,M,0.295,N,0.547,K,A*2B
+GPSRD:$GNGGA,161700.000,5133.4320,N,00431.0016,E,1,8,1.23,-12.8,M,47.2,M,,*5C
$GPGSA,A,3,12,22,11,25,20,02,,,,,,,1.54,1.23,0.92*0D
$BDGSA,A,3,13,23,,,,,,,,,,,1.54,1.23,0.92*1B
$GPGSV,4,1,14,29,84,150,18,31,61,269,,25,50,102,24,02,46,140,29*72
$GPGSV,4,2,14,33,28,204,,26,26,287,,11,23,044,19,12,22,099,15*75
$GPGSV,4,3,14,22,21,249,24,18,13,174,15,20,11,069,25,04,07,339,*7C
$GPGSV,4,4,14,32,04,222,,05,01,098,*7E
$BDGSV,2,1,08,28,53,190,19,23,46,144,20,13,32,073,23,08,32,063,*65
$BDGSV,2,2,08,05,12,120,,27,08,212,17,22,04,355,,19,02,308,*69
$GNRMC,161700.000,A,5133.4320,N,00431.0016,E,0.233,303.94,190123,,,A*46
$GNVTG,303.94,T,,M,0.233,N,0.432,K,A*29
+GPSRD:$GNGGA,161701.000,5133.4321,N,00431.0016,E,1,8,1.23,-12.8,M,47.2,M,,*5C
$GPGSA,A,3,12,22,11,25,20,02,,,,,,,1.54,1.23,0.92*0D
$BDGSA,A,3,13,23,,,,,,,,,,,1.54,1.23,0.92*1B
$GPGSV,4,1,14,29,84,150,17,31,61,269,,25,50,102,24,02,46,140,29*7D
$GPGSV,4,2,14,33,28,204,,26,26,287,,11,23,044,18,12,22,099,17*76
$GPGSV,4,3,14,22,21,249,23,18,13,174,15,20,11,069,25,04,07,339,*7B
$GPGSV,4,4,14,32,04,222,,05,01,098,*7E
$BDGSV,2,1,08,28,53,190,19,23,46,144,20,13,32,073,22,08,32,063,*64
$BDGSV,2,2,08,05,12,120,,27,08,212,17,22,04,355,,19,02,308,*69
$GNRMC,161701.000,A,5133.4321,N,00431.0016,E,0.351,0.92,190123,,,A*45
$GNVTG,0.92,T,,M,0.351,N,0.651,K,A*2D
+GPSRD:$GNGGA,161702.000,5133.4321,N,00431.0018,E,1,8,1.47,-12.9,M,47.2,M,,*52
$GPGSA,A,3,12,22,11,25,20,02,,,,,,,2.79,1.47,2.37*0E
$BDGSA,A,3,13,23,,,,,,,,,,,2.79,1.47,2.37*18
$GPGSV,4,1,14,29,84,150,17,31,61,269,,25,50,102,24,02,46,140,29*7D
$GPGSV,4,2,14,33,28,204,,26,26,287,,11,23,044,18,12,22,099,15*74
$GPGSV,4,3,14,22,21,249,23,18,13,174,15,20,11,069,25,04,07,339,*7B
$GPGSV,4,4,14,32,04,222,,05,01,098,*7E
$BDGSV,2,1,08,28,53,190,20,23,46,144,20,13,32,073,22,08,32,063,*6E
$BDGSV,2,2,08,05,12,120,,27,08,212,18,22,04,355,,19,02,308,*66
$GNRMC,161702.000,A,5133.4321,N,00431.0018,E,0.470,29.95,190123,,,A*70
$GNVTG,29.95,T,,M,0.470,N,0.871,K,A*19
+GPSRD:$GNGGA,161703.000,5133.4321,N,00431.0019,E,1,8,1.23,-13.0,M,47.2,M,,*58
$GPGSA,A,3,12,22,11,25,20,02,,,,,,,1.54,1.23,0.92*0D
$BDGSA,A,3,13,23,,,,,,,,,,,1.54,1.23,0.92*1B
$GPGSV,4,1,14,29,84,150,17,31,61,269,,25,50,102,24,02,46,140,29*7D
$GPGSV,4,2,14,33,28,204,,26,26,287,,11,23,044,18,12,22,099,16*77
$GPGSV,4,3,14,22,21,249,23,18,13,174,15,20,11,069,25,04,07,339,*7B
$GPGSV,4,4,14,32,04,222,,05,01,098,*7E
$BDGSV,2,1,08,28,53,190,20,23,46,144,20,13,32,073,22,08,32,063,*6E
$BDGSV,2,2,08,05,12,120,,27,08,212,18,22,04,355,,19,02,308,*66
$GNRMC,161703.000,A,5133.4321,N,00431.0019,E,0.275,71.83,190123,,,A*79
$GNVTG,71.83,T,,M,0.275,N,0.510,K,A*1A
+GPSRD:$GNGGA,161704.000,5133.4321,N,00431.0020,E,1,8,1.23,-13.0,M,47.2,M,,*55
$GPGSA,A,3,12,22,11,25,20,02,,,,,,,1.54,1.23,0.92*0D
$BDGSA,A,3,13,23,,,,,,,,,,,1.54,1.23,0.92*1B
$GPGSV,4,1,14,29,84,150,17,31,61,269,,25,50,102,24,02,46,140,29*7D
$GPGSV,4,2,14,33,28,204,,26,26,287,,11,23,044,18,12,22,099,17*76
$GPGSV,4,3,14,22,21,249,23,18,13,174,15,20,11,069,25,04,07,339,*7B
$GPGSV,4,4,14,32,04,222,,05,01,098,*7E
$BDGSV,2,1,08,28,53,190,20,23,46,144,21,13,32,073,22,08,32,063,*6F
$BDGSV,2,2,08,05,12,120,,27,08,212,18,22,04,355,,19,02,308,*66
$GNRMC,161704.000,A,5133.4321,N,00431.0020,E,0.337,129.24,190123,,,A*42
$GNVTG,129.24,T,,M,0.337,N,0.625,K,A*29
+GPSRD:$GNGGA,161705.000,5133.4322,N,00431.0019,E,1,8,1.23,-13.0,M,47.2,M,,*5D
$GPGSA,A,3,12,22,11,25,20,02,,,,,,,1.54,1.23,0.92*0D
$BDGSA,A,3,13,23,,,,,,,,,,,1.54,1.23,0.92*1B
$GPGSV,4,1,14,29,84,150,17,31,61,269,,25,50,102,24,02,46,140,29*7D
$GPGSV,4,2,14,33,28,204,,26,26,287,,11,23,044,18,12,22,099,17*76
$GPGSV,4,3,14,22,21,249,23,18,13,174,15,20,11,069,25,04,07,339,*7B
$GPGSV,4,4,14,32,04,222,,05,01,098,*7E
$BDGSV,2,1,08,28,53,190,20,23,46,144,21,13,32,073,23,08,32,063,*6E
$BDGSV,2,2,08,05,12,120,,27,08,212,18,22,04,355,,19,02,308,*66
$GNRMC,161705.000,A,5133.4322,N,00431.0019,E,0.136,8.61,190123,,,A*4A
$GNVTG,8.61,T,,M,0.136,N,0.251,K,A*2E
+GPSRD:$GNGGA,161706.000,5133.4324,N,00431.0018,E,1,8,1.47,-13.1,M,47.2,M,,*5A
$GPGSA,A,3,12,22,11,25,20,02,,,,,,,2.79,1.47,2.37*0E
$BDGSA,A,3,13,23,,,,,,,,,,,2.79,1.47,2.37*18
$GPGSV,4,1,14,29,84,150,17,31,61,269,,25,50,102,24,02,46,140,29*7D
$GPGSV,4,2,14,39,27,154,,26,26,287,,11,23,044,18,12,22,099,17*75
$GPGSV,4,3,14,22,21,249,23,18,13,174,14,20,11,069,25,04,07,339,*7A
$GPGSV,4,4,14,32,04,222,,05,01,098,*7E
$BDGSV,2,1,08,28,53,190,20,23,46,144,21,13,32,073,23,08,32,063,*6E
$BDGSV,2,2,08,05,12,120,,27,08,212,18,22,04,355,,19,02,308,*66
$GNRMC,161706.000,A,5133.4324,N,00431.0018,E,0.442,338.92,190123,,,A*44
$GNVTG,338.92,T,,M,0.442,N,0.818,K,A*23
+GPSRD:$GNGGA,161707.000,5133.4323,N,00431.0018,E,1,8,1.23,-13.2,M,47.2,M,,*5D
$GPGSA,A,3,12,22,11,25,20,02,,,,,,,1.54,1.23,0.92*0D
$BDGSA,A,3,13,23,,,,,,,,,,,1.54,1.23,0.92*1B
$GPGSV,4,1,14,29,84,150,17,31,61,269,,25,50,102,24,02,46,140,29*7D
$GPGSV,4,2,14,39,27,154,,26,26,287,,11,22,043,18,12,22,099,17*73
$GPGSV,4,3,14,22,21,249,23,18,13,174,14,20,11,069,25,04,07,339,*7A
$GPGSV,4,4,14,32,04,222,,05,01,098,*7E
$BDGSV,2,1,08,28,53,190,20,23,46,144,20,13,32,073,23,08,32,063,*6F
$BDGSV,2,2,08,05,12,120,,27,08,212,18,22,04,355,,19,02,308,*66
$GNRMC,161707.000,A,5133.4323,N,00431.0018,E,0.273,6.25,190123,,,A*44
$GNVTG,6.25,T,,M,0.273,N,0.507,K,A*26
+GPSRD:$GNGGA,161708.000,5133.4324,N,00431.0018,E,1,8,1.47,-13.2,M,47.2,M,,*57
$GPGSA,A,3,12,22,11,25,20,02,,,,,,,2.79,1.47,2.37*0E
$BDGSA,A,3,13,23,,,,,,,,,,,2.79,1.47,2.37*18
$GPGSV,4,1,14,29,84,150,17,31,61,269,,25,50,102,24,02,46,140,29*7D
$GPGSV,4,2,14,39,27,154,,26,26,287,,11,22,043,18,22,21,249,23*7B
$GPGSV,4,3,14,12,21,100,17,18,13,174,14,20,11,069,25,04,07,339,*70
$GPGSV,4,4,14,32,04,222,,05,01,098,*7E
$BDGSV,2,1,08,28,53,190,20,23,46,144,20,13,32,073,23,08,32,063,*6F
$BDGSV,2,2,08,05,12,120,,27,08,212,18,22,04,355,,19,02,308,*66
$GNRMC,161708.000,A,5133.4324,N,00431.0018,E,0.634,341.14,190123,,,A*49
$GNVTG,341.14,T,,M,0.634,N,1.175,K,A*23
+GPSRD:$GNGGA,161709.000,5133.4324,N,00431.0020,E,1,8,1.23,-13.3,M,47.2,M,,*5E
$GPGSA,A,3,12,22,11,25,20,02,,,,,,,1.54,1.23,0.92*0D
$BDGSA,A,3,13,23,,,,,,,,,,,1.54,1.23,0.92*1B
$GPGSV,4,1,14,29,84,150,17,31,61,269,,25,50,102,24,02,46,140,29*7D
$GPGSV,4,2,14,39,27,154,,26,26,287,,11,22,043,18,22,21,249,23*7B
$GPGSV,4,3,14,12,21,100,18,18,13,174,13,20,11,069,25,04,07,339,*78
$GPGSV,4,4,14,32,04,222,,05,01,098,*7E
$BDGSV,2,1,08,28,53,190,20,23,46,144,20,13,32,073,23,08,32,063,*6F
$BDGSV,2,2,08,05,12,120,,27,08,212,18,22,04,355,,19,02,308,*66
